EventId,Source,Type,Severity,TMC,Description,StartTime(UTC),EndTime(UTC),TimeZone,LocationLat,LocationLng,Distance(mi),AirportCode,Number,Street,Side,City,County,State,ZipCode
T-11721344,T,Accident,,241.0,One lane blocked due to accident on Lebanon Dr at Shopton Rd.,2018-08-31 08:16:17,2018-08-31 09:00:54,US/Eastern,35.165051,-80.93759200000001,0.0,KCLT,4998.0,Lebanon Dr,L,Charlotte,Mecklenburg,NC,28273.0
T-11721347,T,Accident,,201.0,Accident on I-485 Westbound at Exit 21 NC-24 W.T. Harris Blvd.,2018-08-31 08:31:00,2018-08-31 09:15:41,US/Eastern,35.351254,-80.864677,0.0,KCLT,,W W.T. Harris Blvd,R,Charlotte,Mecklenburg,NC,28216.0
T-11721349,T,Accident,,201.0,Accident on Underwood Ave at Cotswold Ct.,2018-08-31 09:16:10,2018-08-31 10:00:38,US/Eastern,35.304623,-80.677734,0.0,KJQF,5915.0,Underwood Ave,R,Charlotte,Cabarrus,NC,28213.0
T-11721352,T,Accident,,201.0,Accident on I-85 Northbound at Exits 38 39 Statesville Rd.,2018-08-31 10:15:52,2018-08-31 11:00:24,US/Eastern,35.272919,-80.836464,0.0,KCLT,,Statesville Ave,R,Charlotte,Mecklenburg,NC,28206.0
T-11721358,T,Accident,,201.0,Accident on Sharon Amity Rd at Randolph Rd.,2018-08-31 10:37:07,2018-08-31 11:21:35,US/Eastern,35.175934000000005,-80.79827900000001,0.0,KCLT,4498.0,Randolph Rd,R,Charlotte,Mecklenburg,NC,28211.0
T-11721362,T,Accident,,201.0,Accident on I-77 Northbound after Exits 6A 6B Woodlawn Rd.,2018-08-31 10:41:02,2018-08-31 11:25:17,US/Eastern,35.180077000000004,-80.886864,0.0,KCLT,,I-77 S,R,Charlotte,Mecklenburg,NC,28217.0
T-11721363,T,Accident,,241.0,One lane blocked due to accident on Beatties Ford Rd at Olde English Dr.,2018-08-31 10:42:10,2018-08-31 11:26:25,US/Eastern,35.294952,-80.85629300000001,0.0,KCLT,4400.0,Beatties Ford Rd,R,Charlotte,Mecklenburg,NC,28216.0
T-11721369,T,Accident,,201.0,Accident on NC-16 Brookshire Blvd at Old Plank Rd.,2018-08-31 10:54:55,2018-08-31 11:39:31,US/Eastern,35.300732,-80.92040300000001,0.0,KCLT,,Old Plank Rd,R,Charlotte,Mecklenburg,NC,28216.0
T-11721372,T,Accident,,201.0,Right lane blocked due to accident on I-77 Northbound at Exit 90 US-21.,2018-08-31 11:05:09,2018-08-31 11:49:52,US/Eastern,35.092087,-80.933495,0.0,KUZA,,Highway 21,R,Fort Mill,York,SC,29715.0
T-11721375,T,Accident,,201.0,Accident on NC-16 Providence Rd at Alexander Rd.,2018-08-31 11:11:45,2018-08-31 11:41:18,US/Eastern,35.117374,-80.77941899999999,0.0,KCLT,6699.0,Providence Rd,L,Charlotte,Mecklenburg,NC,28226.0
T-11721378,T,Accident,,201.0,Accident on I-77 Northbound at Exit 90 US-21.,2018-08-31 11:15:41,2018-08-31 12:00:20,US/Eastern,35.092087,-80.933495,0.0,KUZA,,Highway 21,R,Fort Mill,York,SC,29715.0
T-11721379,T,Accident,,201.0,Accident on Lakeview Rd at NC-24 W.T. Harris Blvd.,2018-08-31 11:15:57,2018-08-31 11:45:35,US/Eastern,35.338840000000005,-80.834328,0.0,KJQF,,Lakeview Rd,R,Charlotte,Mecklenburg,NC,28269.0
T-11721384,T,Accident,,201.0,Accident on NC-51 Pineville-Matthews Rd at Schooner Ln.,2018-08-31 11:24:21,2018-08-31 12:08:54,US/Eastern,35.114693,-80.749222,0.0,KEQY,8246.0,Schooner Ln,L,Matthews,Mecklenburg,NC,28105.0
T-11721386,T,Accident,,201.0,Accident on Armory Dr at Kings Dr.,2018-08-31 11:23:51,2018-08-31 12:08:32,US/Eastern,35.219871999999995,-80.82944499999999,0.0,KCLT,407.0,N Kings Dr,L,Charlotte,Mecklenburg,NC,28204.0
T-11721387,T,Accident,,201.0,Accident on Red Bird Trl at Old Providence Rd.,2018-08-31 11:26:51,2018-08-31 12:11:32,US/Eastern,35.117649,-80.781616,0.0,KCLT,7173.0,Old Providence Rd,L,Charlotte,Mecklenburg,NC,28226.0
T-11721392,T,Accident,,201.0,Accident on Balmoral Park Dr at Bryant Farms Rd.,2018-08-31 11:33:05,2018-08-31 12:17:44,US/Eastern,35.046795,-80.822601,0.0,KEQY,8999.0,Bryant Farms Rd,R,Charlotte,Mecklenburg,NC,28277.0
T-11721394,T,Accident,,201.0,Accident on Monroe Rd at Sharon Amity Rd.,2018-08-31 11:32:39,2018-08-31 12:17:06,US/Eastern,35.189518,-80.772514,0.0,KCLT,5401.0,Monroe Rd,R,Charlotte,Mecklenburg,NC,28212.0
T-11721397,T,Accident,,201.0,Accident on I-85 Northbound at Exit 42 US-29 Tryon St.,2018-08-31 11:34:21,2018-08-31 12:03:47,US/Eastern,35.284317,-80.77533000000001,0.0,KJQF,,I-85 N,R,Charlotte,Mecklenburg,NC,28262.0
T-11721400,T,Accident,,201.0,Accident on Parkwood Ave at The Plaza.,2018-08-31 11:38:02,2018-08-31 12:22:33,US/Eastern,35.232796,-80.807884,0.0,KCLT,,The Plaza,R,Charlotte,Mecklenburg,NC,28205.0
T-11721403,T,Accident,,201.0,Accident on Erwin Rd at NC-160 Steele Creek Rd.,2018-08-31 11:42:31,2018-08-31 12:26:08,US/Eastern,35.119167,-80.983345,0.0,KCLT,14398.0,Erwin Rd,R,Charlotte,Mecklenburg,NC,28273.0
T-11721414,T,Accident,,201.0,Accident on Ballantyne Commons Pkwy at Rea Rd.,2018-08-31 11:51:41,2018-08-31 12:36:25,US/Eastern,35.058193,-80.812454,0.0,KEQY,7898.0,Ballantyne Commons Pkwy,L,Charlotte,Mecklenburg,NC,28277.0
T-11721416,T,Accident,,201.0,Accident on NC-27 Freedom Dr at Little Rock Rd.,2018-08-31 11:51:21,2018-08-31 12:35:45,US/Eastern,35.272095,-80.93463100000001,0.0,KCLT,6327.0,Freedom Dr,L,Charlotte,Mecklenburg,NC,28214.0
T-11721420,T,Accident,,201.0,Accident on NC-24 W.T. Harris Blvd at Rocky River Rd.,2018-08-31 11:54:47,2018-08-31 12:39:35,US/Eastern,35.276314,-80.72776800000001,0.0,KJQF,,E W.T. Harris Blvd,R,Charlotte,Mecklenburg,NC,28213.0
T-11721421,T,Accident,,201.0,Accident on Beatties Ford Rd at Sunset Rd.,2018-08-31 11:53:30,2018-08-31 12:38:17,US/Eastern,35.305023,-80.858292,0.0,KCLT,5099.0,Beatties Ford Rd,L,Charlotte,Mecklenburg,NC,28216.0
T-11721428,T,Accident,,201.0,Accident on Morris Field Dr at Billy Graham Pkwy.,2018-08-31 12:01:29,2018-08-31 12:46:00,US/Eastern,35.215965000000004,-80.923119,0.0,KCLT,,Billy Graham Pkwy,R,Charlotte,Mecklenburg,NC,28208.0
T-11721429,T,Accident,,201.0,Accident on Harrisburg Rd at Reedy Creek Rd.,2018-08-31 12:02:05,2018-08-31 12:46:53,US/Eastern,35.256115,-80.65419,0.0,KJQF,11101.0,Harrisburg Rd,L,Charlotte,Mecklenburg,NC,28215.0
T-11721430,T,Accident,,201.0,Accident on Sunset Rd at I-77.,2018-08-31 12:02:38,2018-08-31 12:47:13,US/Eastern,35.307434,-80.848045,0.0,KCLT,,Sunset Rd,R,Charlotte,Mecklenburg,NC,28216.0
T-11721436,T,Accident,,201.0,Right lane blocked due to accident on Billy Graham Pkwy Northbound from Morris Field Dr to Josh Birmingham Pkwy.,2018-08-31 12:08:30,2018-08-31 12:52:54,US/Eastern,35.22229,-80.924103,0.709999978542,KCLT,,Billy Graham Pkwy,R,Charlotte,Mecklenburg,NC,28208.0
T-11721437,T,Accident,,201.0,Accident on I-77 Northbound at Exit 88 SC-460 Gold Hill Rd.,2018-08-31 12:12:09,2018-08-31 12:56:40,US/Eastern,35.060925,-80.956329,0.0,KUZA,,I-77 S,R,Fort Mill,York,SC,29715.0
T-11721442,T,Accident,,201.0,Accident on Long Ave at Monroe Rd.,2018-08-31 12:19:55,2018-08-31 13:04:41,US/Eastern,35.184902,-80.762489,0.0,KCLT,6019.0,Monroe Rd,L,Charlotte,Mecklenburg,NC,28212.0
T-11721443,T,Accident,,201.0,Accident on Sugar Creek Rd at Reagan Dr.,2018-08-31 12:20:18,2018-08-31 13:05:03,US/Eastern,35.276534999999996,-80.793518,0.0,KJQF,,W Sugar Creek Rd,R,Charlotte,Mecklenburg,NC,28213.0
T-11721463,T,Accident,,201.0,Accident on Hirsch Dr at Bacardi Ct.,2018-08-31 12:46:12,2018-08-31 13:15:52,US/Eastern,35.026207,-80.81084399999999,0.0,KEQY,8323.0,Hirsch Dr,L,Charlotte,Mecklenburg,NC,28277.0
T-11721466,T,Accident,,201.0,Accident on Stonewall St at Caldwell St.,2018-08-31 12:43:52,2018-08-31 13:27:46,US/Eastern,35.220161,-80.84474200000001,0.0,KCLT,,S Caldwell St,R,Charlotte,Mecklenburg,NC,28202.0
T-11721467,T,Accident,,201.0,Accident on US-29 Tryon St at Mallard Creek Church Rd.,2018-08-31 12:45:49,2018-08-31 13:30:36,US/Eastern,35.322243,-80.733154,0.0,KJQF,10086.0,N Tryon St,L,Charlotte,Mecklenburg,NC,28262.0
T-11721469,T,Accident,,201.0,Accident on Farmhurst Dr at Doverdale Ln.,2018-08-31 12:51:41,2018-08-31 13:36:18,US/Eastern,35.143715,-80.892525,0.0,KCLT,8101.0,Doverdale Ln,L,Charlotte,Mecklenburg,NC,28217.0
T-11721478,T,Accident,,201.0,Accident on 11th St at Tryon St.,2018-08-31 13:02:51,2018-08-31 13:47:34,US/Eastern,35.233013,-80.834854,0.0,KCLT,,I-277 N,R,Charlotte,Mecklenburg,NC,28206.0
T-11721487,T,Accident,,201.0,Accident on Prosperity Church Rd at Highland Shoppes Dr.,2018-08-31 13:31:02,2018-08-31 14:15:52,US/Eastern,35.371323,-80.784439,0.0,KJQF,5727.0,Prosperity Church Rd,R,Charlotte,Mecklenburg,NC,28269.0
T-11721488,T,Accident,,201.0,Accident on US-521 Johnston Rd at Providence Rd.,2018-08-31 13:31:21,2018-08-31 14:16:07,US/Eastern,35.041911999999996,-80.846542,0.0,KEQY,,Providence Rd W,R,Charlotte,Mecklenburg,NC,28277.0
T-11721495,T,Accident,,201.0,Accident on Monroe Rd at Sardis Rd.,2018-08-31 13:49:11,2018-08-31 14:18:45,US/Eastern,35.13773,-80.738426,0.0,KEQY,9877.0,Monroe Rd,R,Charlotte,Mecklenburg,NC,28270.0
T-11721498,T,Accident,,201.0,Accident on 3rd St at NC-27 McDowell St.,2018-08-31 13:52:33,2018-08-31 14:20:45,US/Eastern,35.218742,-80.83731800000001,0.0,KCLT,300.0,S McDowell St,L,Charlotte,Mecklenburg,NC,28204.0
T-11721499,T,Accident,,201.0,Accident on NC-24 W.T. Harris Blvd at I-77.,2018-08-31 13:54:24,2018-08-31 14:24:16,US/Eastern,35.348240000000004,-80.84722099999999,0.0,KJQF,,W W.T. Harris Blvd,R,Charlotte,Mecklenburg,NC,28269.0
T-11721500,T,Accident,,201.0,Accident on Ayrsley Town Blvd at NC-49 Tryon St.,2018-08-31 13:55:53,2018-08-31 14:25:35,US/Eastern,35.138554,-80.935486,0.0,KCLT,8700.0,S Tryon St,L,Charlotte,Mecklenburg,NC,28273.0
T-11721503,T,Accident,,201.0,Accident on Idlewild Rd at Conference Dr.,2018-08-31 14:01:22,2018-08-31 14:46:00,US/Eastern,35.183537,-80.753273,0.0,KCLT,,Conference Dr,R,Charlotte,Mecklenburg,NC,28212.0
T-11721506,T,Accident,,201.0,Accident on Brevard St at 11th St.,2018-08-31 14:11:56,2018-08-31 14:40:54,US/Eastern,35.229958,-80.83239,0.0,KCLT,751.0,N Brevard St,L,Charlotte,Mecklenburg,NC,28202.0
T-11721507,T,Accident,,201.0,Accident on Atando Ave at Timeplanner Dr.,2018-08-31 14:12:37,2018-08-31 14:57:11,US/Eastern,35.261471,-80.82653,0.0,KCLT,1001.0,Timeplanner Dr,L,Charlotte,Mecklenburg,NC,28206.0
T-11721508,T,Accident,,201.0,Accident on University City Blvd at I-85.,2018-08-31 14:07:37,2018-08-31 14:52:19,US/Eastern,35.291019,-80.769203,0.0,KJQF,,I-85 N,R,Charlotte,Mecklenburg,NC,28262.0
T-11721509,T,Accident,,201.0,Accident on Josh Birmingham Pkwy in Charlotte.,2018-08-31 14:13:57,2018-08-31 14:43:24,US/Eastern,35.225914,-80.946304,0.0,KCLT,,R C Josh Birmingham Pkwy,R,Charlotte,Mecklenburg,NC,28214.0
T-11721511,T,Accident,,201.0,Accident on The Plaza at Eastway Dr.,2018-08-31 14:24:48,2018-08-31 15:09:32,US/Eastern,35.249516,-80.781029,0.0,KCLT,,The Plaza,R,Charlotte,Mecklenburg,NC,28205.0
T-11721512,T,Accident,,241.0,3 left lane blocked due to accident on I-85 Northbound at Exit 27 NC-273 Beatty Dr.,2018-08-31 14:24:16,2018-08-31 15:08:45,US/Eastern,35.257197999999995,-81.026825,0.0,KCLT,,Beatty Dr,R,Belmont,Gaston,NC,28012.0
T-11721514,T,Accident,,201.0,Accident on Sandy Porter Rd at NC-49 Tryon St.,2018-08-31 14:26:51,2018-08-31 15:11:31,US/Eastern,35.134869,-80.939102,0.0,KCLT,,S Tryon St,R,Charlotte,Mecklenburg,NC,28273.0
T-11721515,T,Accident,,201.0,Restrictions due to accident on Tyvola Rd at I-77.,2018-08-31 14:26:28,2018-08-31 15:11:12,US/Eastern,35.163101,-80.889854,0.0,KCLT,,Tyvola Rd,R,Charlotte,Mecklenburg,NC,28217.0
T-11721516,T,Accident,,201.0,Accident on Tanager Park Dr at Kestrel Ct.,2018-08-31 14:27:16,2018-08-31 15:11:54,US/Eastern,35.305611,-80.846519,0.0,KJQF,4823.0,Tanager Park Dr,R,Charlotte,Mecklenburg,NC,28269.0
T-11721517,T,Accident,,201.0,Left lane blocked due to accident on I-85 Southbound at Exit 39.,2018-08-31 14:34:56,2018-08-31 15:18:59,US/Eastern,35.272919,-80.836464,0.0,KCLT,,Statesville Ave,R,Charlotte,Mecklenburg,NC,28206.0
T-11721518,T,Accident,,201.0,Accident on Randolph Rd at Hodgson Rd.,2018-08-31 14:39:21,2018-08-31 15:23:58,US/Eastern,35.173491999999996,-80.79731,0.0,KCLT,4632.0,Randolph Rd,R,Charlotte,Mecklenburg,NC,28211.0
T-11721519,T,Accident,,201.0,Accident on US-29 Tryon St at NC-24 W.T. Harris Blvd.,2018-08-31 14:38:40,2018-08-31 15:23:15,US/Eastern,35.305766999999996,-80.749763,0.0,KJQF,,W W.T. Harris Blvd,R,Charlotte,Mecklenburg,NC,28262.0
T-11721520,T,Accident,,201.0,Restrictions due to accident on McKee Rd at NC-16 Providence Rd.,2018-08-31 14:41:22,2018-08-31 15:25:56,US/Eastern,35.064796,-80.77050799999999,0.0,KEQY,,Ballantyne Commons Pkwy,R,Charlotte,Mecklenburg,NC,28277.0
T-11721521,T,Accident,,201.0,Accident on US-74 Wilkinson Blvd at Ashley Rd.,2018-08-31 14:45:55,2018-08-31 15:30:27,US/Eastern,35.224361,-80.89119699999999,0.0,KCLT,,Wilkinson Blvd,R,Charlotte,Mecklenburg,NC,28208.0
T-11721522,T,Accident,,201.0,Accident on NC-24 W.T. Harris Blvd at US-29 Tryon St.,2018-08-31 14:43:30,2018-08-31 15:28:09,US/Eastern,35.305766999999996,-80.749763,0.0,KJQF,,W W.T. Harris Blvd,R,Charlotte,Mecklenburg,NC,28262.0
T-11721524,T,Accident,,201.0,Accident on NC-16 Brookshire Blvd at Honeywood Ave.,2018-08-31 14:46:52,2018-08-31 15:31:28,US/Eastern,35.261253,-80.877037,0.0,KCLT,3592.0,Brookshire Blvd,R,Charlotte,Mecklenburg,NC,28216.0
T-11721527,T,Accident,,201.0,Accident on US-29 Graham St at Brookshire Fwy.,2018-08-31 15:01:49,2018-08-31 15:45:34,US/Eastern,35.236034000000004,-80.839546,0.0,KCLT,,NC-16 S,R,Charlotte,Mecklenburg,NC,28202.0
T-11721529,T,Accident,,201.0,Accident on Milan Rd at Bardot Dr.,2018-08-31 15:10:10,2018-08-31 15:54:43,US/Eastern,35.286526,-80.872078,0.0,KCLT,736.0,Milan Rd E,R,Charlotte,Mecklenburg,NC,28216.0
T-11721530,T,Accident,,201.0,Accident on NC-16 Brookshire Blvd at Mount Holly Huntersville Rd.,2018-08-31 15:12:05,2018-08-31 15:56:22,US/Eastern,35.325619,-80.94538100000001,0.0,KCLT,,Brookshire Blvd,R,Charlotte,Mecklenburg,NC,28216.0
T-11721532,T,Accident,,201.0,Accident on NC-24 W.T. Harris Blvd at Rocky River Rd.,2018-08-31 15:18:29,2018-08-31 16:03:10,US/Eastern,35.276314,-80.72776800000001,0.0,KJQF,,E W.T. Harris Blvd,R,Charlotte,Mecklenburg,NC,28213.0
T-11721534,T,Accident,,201.0,Accident on Walnut Ave at 4th St.,2018-08-31 15:27:59,2018-08-31 16:12:41,US/Eastern,35.236523,-80.861465,0.0,KCLT,1698.0,W 4th St,R,Charlotte,Mecklenburg,NC,28208.0
T-11721535,T,Accident,,201.0,Accident on 10th St at McDowell St.,2018-08-31 15:28:48,2018-08-31 16:13:03,US/Eastern,35.224304,-80.827751,0.0,KCLT,601.0,Seigle Point Dr,R,Charlotte,Mecklenburg,NC,28204.0
T-11721536,T,Accident,,201.0,Accident on 11th St at Alexander St.,2018-08-31 15:29:55,2018-08-31 16:13:51,US/Eastern,35.22739,-80.829399,0.0,KCLT,685.0,E 11th St,L,Charlotte,Mecklenburg,NC,28206.0
T-11721537,T,Accident,,201.0,Accident on Regent Pkwy at Starlight Dr.,2018-08-31 15:33:35,2018-08-31 16:17:51,US/Eastern,35.065146999999996,-80.911346,0.0,KUZA,8100.0,Regent Pkwy,L,Fort Mill,York,SC,29715.0
T-11721540,T,Accident,,201.0,Accident on US-29 Graham St at Martin Luther King Blvd.,2018-08-31 15:37:22,2018-08-31 16:21:58,US/Eastern,35.228271,-80.85013599999999,0.0,KCLT,400.0,S Graham St,R,Charlotte,Mecklenburg,NC,28202.0
T-11721542,T,Accident,,201.0,Accident on Woodlawn Rd at Park Rd.,2018-08-31 15:46:06,2018-08-31 16:30:45,US/Eastern,35.172092,-80.85120400000001,0.0,KCLT,1498.0,E Woodlawn Rd,R,Charlotte,Mecklenburg,NC,28209.0
T-11721545,T,Accident,,201.0,Restrictions due to accident on Quail Hollow Rd at Sharon Rd.,2018-08-31 15:50:24,2018-08-31 16:35:02,US/Eastern,35.133942,-80.83914200000001,0.0,KCLT,5819.0,Sharon Rd,L,Charlotte,Mecklenburg,NC,28210.0
T-11721547,T,Accident,,201.0,Restrictions due to accident on Johnston Rd at I-485 .,2018-08-31 15:55:15,2018-08-31 16:39:51,US/Eastern,35.065018,-80.84581,0.0,KEQY,,Johnston Rd,R,Charlotte,Mecklenburg,NC,28277.0
T-11721548,T,Accident,,201.0,Accident on West Blvd at Camden Rd.,2018-08-31 15:54:23,2018-08-31 16:38:41,US/Eastern,35.21257,-80.85880999999999,0.0,KCLT,1799.0,Camden Rd,L,Charlotte,Mecklenburg,NC,28203.0
T-11721551,T,Accident,,201.0,Accident on Fairview Rd at Piedmont Row Dr.,2018-08-31 15:57:56,2018-08-31 16:42:43,US/Eastern,35.151253000000004,-80.839989,0.0,KCLT,,Fairview Rd,R,Charlotte,Mecklenburg,NC,28210.0
T-11721560,T,Accident,,201.0,Accident on Westinghouse Blvd at NC-160 Steele Creek Rd.,2018-08-31 16:22:03,2018-08-31 16:51:55,US/Eastern,35.136433000000004,-80.977837,0.0,KCLT,11400.0,Steele Creek Rd,R,Charlotte,Mecklenburg,NC,28273.0
T-11721562,T,Accident,,201.0,Accident on 4th St at Charlottetowne Ave.,2018-08-31 16:23:59,2018-08-31 16:53:53,US/Eastern,35.214645000000004,-80.83000899999999,0.0,KCLT,,E 4th St,R,Charlotte,Mecklenburg,NC,28204.0
T-11721563,T,Accident,,201.0,Accident on US-21 Statesville Rd at Dallas St.,2018-08-31 16:23:15,2018-08-31 16:53:04,US/Eastern,35.408188,-80.854385,0.0,KJQF,14101.0,Statesville Rd,L,Huntersville,Mecklenburg,NC,28078.0
T-11721568,T,Accident,,201.0,Accident on South Blvd at Woodlawn Rd.,2018-08-31 16:28:20,2018-08-31 16:58:15,US/Eastern,35.176536999999996,-80.876274,0.0,KCLT,398.0,E Woodlawn Rd,R,Charlotte,Mecklenburg,NC,28217.0
T-11721570,T,Accident,,201.0,Accident on US-74 Wilkinson Blvd at I-485.,2018-08-31 16:31:26,2018-08-31 17:01:16,US/Eastern,35.239475,-80.969864,0.0,KCLT,,Wilkinson Blvd,R,Charlotte,Mecklenburg,NC,28214.0
T-11721571,T,Accident,,201.0,Accident on Fairview Rd at Arundel Dr.,2018-08-31 16:33:05,2018-08-31 17:03:01,US/Eastern,35.153988,-80.848251,0.0,KCLT,,Fairview Rd,R,Charlotte,Mecklenburg,NC,28209.0
T-11721574,T,Accident,,201.0,Accident on Johnston Rd at Walsh Blvd.,2018-08-31 16:35:14,2018-08-31 17:05:10,US/Eastern,35.089153,-80.853516,0.0,KCLT,,Walsh Blvd,R,Charlotte,Mecklenburg,NC,28226.0
T-11721575,T,Accident,,201.0,Accident on NC-24 W.T. Harris Blvd at Research Dr.,2018-08-31 16:34:12,2018-08-31 17:03:43,US/Eastern,35.31398,-80.763931,0.0,KJQF,,Ibm Dr,R,Charlotte,Mecklenburg,NC,28262.0
T-11721579,T,Accident,,201.0,Accident on Ibm Dr at NC-24 W.T. Harris Blvd.,2018-08-31 16:37:21,2018-08-31 17:07:14,US/Eastern,35.317535,-80.77628299999999,0.0,KJQF,,Ibm Dr,R,Charlotte,Mecklenburg,NC,28262.0
T-11721581,T,Accident,,201.0,Accident on Providence Rd at Lancaster Hwy.,2018-08-31 16:42:00,2018-08-31 17:11:56,US/Eastern,35.040527000000004,-80.861526,0.0,KCLT,15201.0,Lancaster Hwy,R,Pineville,Mecklenburg,NC,28134.0
T-11721582,T,Accident,,201.0,Accident on US-74 Independence Blvd at Margaret Wallace Rd.,2018-08-31 16:40:05,2018-08-31 17:09:53,US/Eastern,35.163998,-80.740662,0.0,KEQY,7103.0,E Independence Blvd,L,Charlotte,Mecklenburg,NC,28227.0
T-11721583,T,Accident,,201.0,Accident on East Blvd at Dilworth Rd.,2018-08-31 16:41:38,2018-08-31 17:11:34,US/Eastern,35.204879999999996,-80.848564,0.0,KCLT,998.0,East Blvd,R,Charlotte,Mecklenburg,NC,28203.0
T-11721599,T,Accident,,201.0,Accident on Brickstone Dr at Lawyers Rd.,2018-08-31 16:59:40,2018-08-31 17:29:32,US/Eastern,35.189453,-80.69677,0.0,KEQY,8701.0,Lawyers Rd,L,Charlotte,Mecklenburg,NC,28227.0
T-11721602,T,Accident,,201.0,Accident on US-521 Johnston Rd at Brixham Hill Ave.,2018-08-31 17:07:16,2018-08-31 17:37:11,US/Eastern,35.058201000000004,-80.849304,0.0,KEQY,13089.0,Johnston Rd,R,Charlotte,Mecklenburg,NC,28277.0
T-11721606,T,Accident,,201.0,Accident on Fairview Rd at Park South Dr.,2018-08-31 17:08:16,2018-08-31 17:38:10,US/Eastern,35.151627000000005,-80.841667,0.0,KCLT,,Park South Dr,R,Charlotte,Mecklenburg,NC,28210.0
T-11721626,T,Accident,,201.0,Accident on Dogwood Pl at Hickory Grove Rd.,2018-08-31 17:36:34,2018-08-31 18:06:23,US/Eastern,35.222649,-80.727356,0.0,KCLT,4601.0,Dogwood Pl,L,Charlotte,Mecklenburg,NC,28212.0
T-11721627,T,Accident,,201.0,Accident on Arvin Dr at Statesville Rd.,2018-08-31 17:34:35,2018-08-31 18:04:28,US/Eastern,35.28886,-80.836647,0.0,KJQF,3299.0,Cochrane Dr,L,Charlotte,Mecklenburg,NC,28269.0
T-11721629,T,Accident,,201.0,Accident on US-74 Wilkinson Blvd at Crispin Ave.,2018-08-31 17:40:49,2018-08-31 18:10:43,US/Eastern,35.224716,-80.901146,0.0,KCLT,3611.0,Wilkinson Blvd,L,Charlotte,Mecklenburg,NC,28208.0
T-11721640,T,Accident,,241.0,Lane blocked due to accident on I-85 Southbound at Exit 26 NC-7 McAdenville Rd.,2018-08-31 18:02:58,2018-08-31 18:32:50,US/Eastern,35.257416,-81.043755,0.0,KCLT,,I-85 S,R,Belmont,Gaston,NC,28012.0
T-11721658,T,Accident,,201.0,Accident on Grimes St at Norris Ave.,2018-08-31 18:25:48,2018-08-31 18:55:42,US/Eastern,35.253741999999995,-80.821945,0.0,KCLT,2703.0,Grimes St,L,Charlotte,Mecklenburg,NC,28206.0
T-11721664,T,Accident,,201.0,Accident on Hidden Forest Dr at Pondella Dr.,2018-08-31 18:33:43,2018-08-31 19:03:38,US/Eastern,35.277279,-80.778175,0.0,KJQF,6591.0,Hidden Forest Dr,L,Charlotte,Mecklenburg,NC,28213.0
T-11721673,T,Accident,,201.0,Accident on Ardrey Kell Rd at Beau Riley Rd.,2018-08-31 18:44:01,2018-08-31 19:13:56,US/Eastern,35.028244,-80.826553,0.0,KEQY,11001.0,Beau Riley Rd,R,Charlotte,Mecklenburg,NC,28277.0
T-11721719,T,Accident,,201.0,Accident on US-74 Independence Blvd at Exit 244 Briar Creek Rd.,2018-08-31 19:15:37,2018-08-31 19:45:30,US/Eastern,35.207024,-80.796341,0.0,KCLT,,Briar Creek Rd,R,Charlotte,Mecklenburg,NC,28205.0
T-11721778,T,Accident,,201.0,Accident on Johnston Rd at NC-51 Pineville-Matthews Rd.,2018-08-31 19:46:36,2018-08-31 20:16:28,US/Eastern,35.087672999999995,-80.852898,0.0,KCLT,,Pineville-Matthews Rd,R,Charlotte,Mecklenburg,NC,28226.0
T-11721779,T,Accident,,201.0,Accident on Caldwell Ridge Pkwy at Back Acre Dr.,2018-08-31 19:47:01,2018-08-31 20:16:54,US/Eastern,35.295986,-80.68856,0.0,KJQF,3803.0,Caldwell Ridge Pkwy,R,Charlotte,Mecklenburg,NC,28213.0
T-11721812,T,Accident,,201.0,Accident on I-85 Northbound at Exit 29 Sam Wilson Rd.,2018-08-31 19:58:26,2018-08-31 20:58:19,US/Eastern,35.254246,-80.982529,0.0,KCLT,,Sam Wilson Rd,R,Charlotte,Mecklenburg,NC,28214.0
T-11721827,T,Accident,,201.0,Accident on Green Rea Rd at Carmel Rd.,2018-08-31 20:06:15,2018-08-31 21:05:56,US/Eastern,35.105793,-80.82738499999999,0.0,KCLT,,Green Rea Rd,R,Charlotte,Mecklenburg,NC,28226.0
T-11721832,T,Accident,,201.0,Accident on Clemson Ave at The Plaza.,2018-08-31 20:04:27,2018-08-31 21:04:21,US/Eastern,35.236378,-80.802658,0.0,KCLT,2600.0,Clemson Ave,R,Charlotte,Mecklenburg,NC,28205.0
T-11721833,T,Accident,,201.0,Accident on NC-16 Brookshire Fwy Eastbound at Idaho Dr.,2018-08-31 20:05:39,2018-08-31 21:05:22,US/Eastern,35.251896,-80.860748,0.0,KCLT,,Brookshire Fwy E,R,Charlotte,Mecklenburg,NC,28216.0
T-11721835,T,Accident,,201.0,Accident on US-29 Tryon St at Wellingford St.,2018-08-31 20:05:17,2018-08-31 21:05:12,US/Eastern,35.258385,-80.790977,0.0,KJQF,4501.0,N Tryon St,R,Charlotte,Mecklenburg,NC,28213.0
T-11721836,T,Accident,,201.0,Accident on Atando Ave near Graham St.,2018-08-31 20:06:40,2018-08-31 21:06:18,US/Eastern,35.260979,-80.819649,0.0,KCLT,3200.0,N Graham St,R,Charlotte,Mecklenburg,NC,28206.0
T-11721839,T,Accident,,201.0,Accident on Stumptown Rd at US-21 Statesville Rd.,2018-08-31 20:05:04,2018-08-31 21:04:58,US/Eastern,35.422503999999996,-80.859657,0.0,KJQF,14398.0,Stumptown Rd,L,Huntersville,Mecklenburg,NC,28078.0
T-11721851,T,Accident,,201.0,Accident on Coliseum Centre Dr at Yorkmont Rd.,2018-08-31 20:10:53,2018-08-31 21:10:43,US/Eastern,35.190205,-80.918877,0.0,KCLT,2898.0,Coliseum Centre Dr,L,Charlotte,Mecklenburg,NC,28217.0
T-11721885,T,Accident,,201.0,Accident on NC-51 Pineville-Matthews Rd at Bannington Rd.,2018-08-31 20:24:46,2018-08-31 20:54:42,US/Eastern,35.086937,-80.83757,0.0,KCLT,,Pineville-Matthews Rd,R,Charlotte,Mecklenburg,NC,28226.0
T-11721888,T,Accident,,201.0,Accident on Rea Rd at Macandrew Dr.,2018-08-31 20:23:39,2018-08-31 20:53:34,US/Eastern,35.100288,-80.80890699999999,0.0,KCLT,5301.0,Macandrew Dr,L,Charlotte,Mecklenburg,NC,28226.0
T-11721889,T,Accident,,201.0,Accident on Rea Rd at Colony Rd.,2018-08-31 20:23:17,2018-08-31 20:53:11,US/Eastern,35.105152000000004,-80.80794499999999,0.0,KCLT,7898.0,Rea Rd,R,Charlotte,Mecklenburg,NC,28226.0
T-11721894,T,Accident,,201.0,Accident on NC-115 Old Statesville Rd at Sherwood Dr.,2018-08-31 20:24:12,2018-08-31 20:54:07,US/Eastern,35.417103000000004,-80.84234599999999,0.0,KJQF,499.0,Sherwood Dr,L,Huntersville,Mecklenburg,NC,28078.0
T-11721898,T,Accident,,201.0,Accident on Arrowood Rd at I-77.,2018-08-31 20:26:34,2018-08-31 20:56:28,US/Eastern,35.137718,-80.90748599999999,0.0,KCLT,,I-77 N,R,Charlotte,Mecklenburg,NC,28273.0
T-11721899,T,Accident,,201.0,Accident on Lawyers Rd at NC-24 Albemarle Rd.,2018-08-31 20:27:35,2018-08-31 20:57:03,US/Eastern,35.203033000000005,-80.72425799999999,0.0,KEQY,7008.0,Albemarle Rd,L,Charlotte,Mecklenburg,NC,28227.0
T-11721917,T,Accident,,201.0,Accident on Kings Dr at Morehead St.,2018-08-31 20:32:09,2018-08-31 21:02:03,US/Eastern,35.205025,-80.835922,0.0,KCLT,,E Morehead St,R,Charlotte,Mecklenburg,NC,28204.0
T-11721920,T,Accident,,201.0,Accident on US-521 Johnston Rd at Marvin Rd.,2018-08-31 20:35:21,2018-08-31 21:05:16,US/Eastern,35.034527000000004,-80.847504,0.0,KEQY,15595.0,Johnston Rd,L,Charlotte,Mecklenburg,NC,28277.0
T-11721922,T,Accident,,201.0,Accident on Piper Station Dr at Rea Rd.,2018-08-31 20:35:42,2018-08-31 21:05:36,US/Eastern,35.060425,-80.81311,0.0,KEQY,,Piper Station Dr,R,Charlotte,Mecklenburg,NC,28277.0
T-11721924,T,Accident,,201.0,Accident on Nations Ford Rd at Arrowood Rd.,2018-08-31 20:36:08,2018-08-31 21:06:03,US/Eastern,35.135525,-80.891853,0.0,KCLT,9000.0,Nations Ford Rd,R,Charlotte,Mecklenburg,NC,28273.0
T-11721948,T,Accident,,201.0,Accident on NC-49 Tryon St at Township Rd.,2018-08-31 20:37:41,2018-08-31 21:07:33,US/Eastern,35.132233,-80.940605,0.0,KCLT,9300.0,S Tryon St,R,Charlotte,Mecklenburg,NC,28273.0
T-11721954,T,Accident,,201.0,Accident on Ardrey Kell Rd at Wade Ardrey Rd.,2018-08-31 20:46:10,2018-08-31 21:16:04,US/Eastern,35.029236,-80.822731,0.0,KEQY,9961.0,Ardrey Kell Rd,R,Charlotte,Mecklenburg,NC,28277.0
T-11721973,T,Accident,,201.0,Accident on Trysting Rd at NC-24 W.T. Harris Blvd.,2018-08-31 20:53:22,2018-08-31 21:23:15,US/Eastern,35.219398,-80.72305300000001,0.0,KEQY,,Trysting Rd,R,Charlotte,Mecklenburg,NC,28227.0
T-11721978,T,Accident,,201.0,Accident on US-29 Tryon St at Eastway Dr.,2018-08-31 20:52:17,2018-08-31 21:22:13,US/Eastern,35.259918,-80.776901,0.0,KJQF,,Eastway Dr,R,Charlotte,Mecklenburg,NC,28213.0
T-11721991,T,Accident,,201.0,Accident on US-74 Wilkinson Blvd at I-485.,2018-08-31 20:56:12,2018-08-31 21:26:05,US/Eastern,35.239475,-80.969864,0.0,KCLT,,Wilkinson Blvd,R,Charlotte,Mecklenburg,NC,28214.0
T-11722044,T,Accident,,201.0,Accident on Tuckaseegee Rd at Timberbrook Dr.,2018-08-31 21:08:50,2018-08-31 21:38:43,US/Eastern,35.248492999999996,-80.908745,0.0,KCLT,3000.0,Timberbrook Dr,R,Charlotte,Mecklenburg,NC,28208.0
T-11722045,T,Accident,,201.0,Accident on Hambright Rd at McCoy Rd.,2018-08-31 21:09:11,2018-08-31 21:39:02,US/Eastern,35.38512,-80.88343,0.0,KJQF,11699.0,McCoy Rd,L,Huntersville,Mecklenburg,NC,28078.0
T-11722264,T,Accident,,241.0,Lane blocked due to accident on I-77 Northbound before Exit 90 US-21.,2018-08-31 22:27:26,2018-08-31 22:57:10,US/Eastern,35.091465,-80.933594,0.0,KUZA,,I-77 N,R,Fort Mill,York,SC,29715.0
T-12362192,T,Accident,,201.0,Accident on Ravenswood Rd at Bellhaven Blvd.,2018-07-31 08:10:06,2018-07-31 08:39:45,US/Eastern,35.300446,-80.929497,0.0,KCLT,7799.0,Bellhaven Blvd,R,Charlotte,Mecklenburg,NC,28216.0
T-12362195,T,Accident,,201.0,Accident on Statesville Ave near Beasley Ln.,2018-07-31 09:15:23,2018-07-31 09:44:15,US/Eastern,35.269943,-80.839272,0.0,KCLT,2139.0,Tipton Dr,L,Charlotte,Mecklenburg,NC,28206.0
T-12362202,T,Accident,,241.0,Left lane blocked due to accident on I-77 Northbound near Exits 10 10B Trade St.,2018-07-31 09:53:29,2018-07-31 11:07:48,US/Eastern,35.23597,-80.85578199999999,0.0,KCLT,,I-77 N,R,Charlotte,Mecklenburg,NC,28216.0
T-12362207,T,Accident,,201.0,Accident on NC-16 Brookshire Blvd Southbound at Old North Carolina Hwy 16. Expect congestion.,2018-07-31 10:31:34,2018-07-31 11:45:26,US/Eastern,35.266926,-80.88215600000001,0.0,KCLT,4193.0,Brookshire Blvd,L,Charlotte,Mecklenburg,NC,28216.0
T-12362209,T,Accident,,201.0,Accident on NC-49 Tryon St Eastbound at Arrowood.,2018-07-31 10:33:53,2018-07-31 11:03:12,US/Eastern,35.148029,-80.925674,0.0,KCLT,7743.0,S Tryon St,L,Charlotte,Mecklenburg,NC,28217.0
T-12362212,T,Accident,,201.0,Accident on Romare Beardon Dr at Farmer St.,2018-07-31 10:55:59,2018-07-31 12:25:19,US/Eastern,35.209571999999994,-80.894775,0.0,KCLT,,Farmer St,R,Charlotte,Mecklenburg,NC,28208.0
T-12362214,T,Accident,,201.0,Accident on NC-160 West Blvd Northbound at Clanton Rd.,2018-07-31 10:57:35,2018-07-31 11:26:21,US/Eastern,35.212536,-80.893173,0.0,KCLT,,West Blvd,R,Charlotte,Mecklenburg,NC,28208.0
T-12362215,T,Accident,,201.0,Accident on I-85 Southbound at Exits 45A 45B NC-24 W.T. Harris Blvd.,2018-07-31 11:00:18,2018-07-31 12:14:51,US/Eastern,35.311943,-80.75846899999999,0.0,KJQF,,W W.T. Harris Blvd,R,Charlotte,Mecklenburg,NC,28262.0
T-12362216,T,Accident,,201.0,Accident on NC-24 W.T. Harris Blvd at I-85 .,2018-07-31 11:01:03,2018-07-31 11:46:00,US/Eastern,35.311943,-80.75846899999999,0.0,KJQF,,W W.T. Harris Blvd,R,Charlotte,Mecklenburg,NC,28262.0
T-12362236,T,Accident,,201.0,Accident on Nations Ford Rd at Arrowood Rd.,2018-07-31 11:55:49,2018-07-31 13:10:29,US/Eastern,35.135525,-80.891853,0.0,KCLT,9000.0,Nations Ford Rd,R,Charlotte,Mecklenburg,NC,28273.0
T-12362238,T,Accident,,201.0,Accident on I-77 Southbound at Exit 6B NC-49 Tryon St.,2018-07-31 11:56:51,2018-07-31 12:26:18,US/Eastern,35.182632,-80.88748199999999,0.0,KCLT,,S Tryon St,R,Charlotte,Mecklenburg,NC,28217.0
T-12362242,T,Accident,,201.0,Accident on E John Belk Fr Eastbound at Exit 2B NC-27 McDowell St.,2018-07-31 12:00:04,2018-07-31 13:13:10,US/Eastern,35.220917,-80.830826,0.0,KCLT,,Brookshire Fwy W,R,Charlotte,Mecklenburg,NC,28204.0
T-12362246,T,Accident,,201.0,Accident on I-77 Southbound before Cindy Ln.,2018-07-31 12:08:33,2018-07-31 13:22:39,US/Eastern,35.281078,-80.84751899999999,0.0,KJQF,,I-77 S,R,Charlotte,Mecklenburg,NC,28269.0
T-12362250,T,Accident,,201.0,Accident on East Blvd at Kenilworth Ave.,2018-07-31 12:16:52,2018-07-31 12:46:30,US/Eastern,35.202007,-80.844749,0.0,KCLT,1716.0,Kenilworth Ave,R,Charlotte,Mecklenburg,NC,28203.0
T-12362252,T,Accident,,201.0,Accident on Tuckaseegee Rd at Ashley Rd .,2018-07-31 12:17:54,2018-07-31 13:17:24,US/Eastern,35.246643,-80.891914,0.0,KCLT,1100.0,Ashley Rd,L,Charlotte,Mecklenburg,NC,28208.0
T-12362256,T,Accident,,201.0,Accident on Lucia Riverbend Hwy Southbound at NC-16 Brookshire Blvd.,2018-07-31 12:27:21,2018-07-31 12:57:21,US/Eastern,35.353981,-80.976784,0.0,KCLT,11887.0,Brookshire Blvd,L,Mount Holly,Gaston,NC,28120.0
T-12362258,T,Accident,,201.0,Accident on NC-24 Albemarle Rd at Hollirose Dr.,2018-07-31 12:41:54,2018-07-31 13:56:14,US/Eastern,35.210716,-80.697807,0.0,KEQY,8760.0,Albemarle Rd,L,Charlotte,Mecklenburg,NC,28227.0
T-12362262,T,Accident,,201.0,Accident on Milton Rd at NC-24 W.T. Harris Blvd.,2018-07-31 12:53:34,2018-07-31 13:23:00,US/Eastern,35.237072,-80.736176,0.0,KJQF,5798.0,E W.T. Harris Blvd,L,Charlotte,Mecklenburg,NC,28215.0
T-12362264,T,Accident,,201.0,Accident on Ballantyne Commons Pkwy at Crestwood Dr.,2018-07-31 13:15:49,2018-07-31 13:45:29,US/Eastern,35.063801,-80.78019,0.0,KEQY,10500.0,Crestwood Dr,R,Charlotte,Mecklenburg,NC,28277.0
T-12362265,T,Accident,,201.0,Accident on Sardis Rd at Maple Shade Ln.,2018-07-31 13:16:50,2018-07-31 14:16:25,US/Eastern,35.138523,-80.741661,0.0,KEQY,1400.0,Sardis Rd N,R,Charlotte,Mecklenburg,NC,28270.0
T-12362268,T,Accident,,201.0,Accident on Sam Wilson Rd at I-85.,2018-07-31 13:17:47,2018-07-31 13:47:12,US/Eastern,35.254246,-80.982529,0.0,KCLT,,Sam Wilson Rd,R,Charlotte,Mecklenburg,NC,28214.0
T-12362270,T,Accident,,201.0,Collector road blocked due to accident on Maggie Laney Dr Eastbound from Edsel Laney Dr to Capps Hill Mine Rd.,2018-07-31 13:20:37,2018-07-31 14:35:22,US/Eastern,35.289260999999996,-80.86283900000001,0.0,KCLT,3799.0,Maggie Laney Dr,L,Charlotte,Mecklenburg,NC,28216.0
T-12362285,T,Accident,,201.0,Accident on US-521 Lancaster Hwy Southbound at Lancaster Hwy.,2018-07-31 14:57:46,2018-07-31 16:12:12,US/Eastern,35.030556,-80.851608,0.0,KEQY,16194.0,Johnston Rd,L,Charlotte,Mecklenburg,NC,28277.0
T-12362289,T,Accident,,201.0,Accident on Fairview Rd at Sharon Rd.,2018-07-31 15:05:05,2018-07-31 16:04:38,US/Eastern,35.148453,-80.830887,0.0,KCLT,,Fairview Rd,R,Charlotte,Mecklenburg,NC,28210.0
T-12362292,T,Accident,,201.0,Accident on Linwood Ave at NC-16 Brookshire Blvd.,2018-07-31 15:08:36,2018-07-31 16:23:00,US/Eastern,35.263084,-80.8797,0.0,KCLT,147.0,N Linwood Ave,L,Charlotte,Mecklenburg,NC,28216.0
T-12362293,T,Accident,,201.0,Accident on Woodlawn Rd in Charlotte.,2018-07-31 15:11:16,2018-07-31 16:25:33,US/Eastern,35.177444,-80.87822,0.0,KCLT,331.0,E Woodlawn Rd,L,Charlotte,Mecklenburg,NC,28217.0
T-12362294,T,Accident,,201.0,Lane blocked due to accident on Plaza Road Ext Eastbound at William Wylie Dr.,2018-07-31 15:16:58,2018-07-31 16:31:25,US/Eastern,35.259617,-80.692513,0.0,KJQF,10352.0,Plaza Road Ext,R,Charlotte,Mecklenburg,NC,28215.0
T-12362300,T,Accident,,201.0,Accident on NC-16 Providence Rd at Knob Oak Ln.,2018-07-31 15:29:04,2018-07-31 16:43:33,US/Eastern,35.155663,-80.79583000000001,0.0,KCLT,4235.0,Providence Rd,L,Charlotte,Mecklenburg,NC,28211.0
T-12362302,T,Accident,,201.0,Accident on Central Ave Northbound at Nandina St.,2018-07-31 15:30:01,2018-07-31 17:14:36,US/Eastern,35.220135,-80.80851,0.0,KCLT,1334.0,Nandina St,R,Charlotte,Mecklenburg,NC,28205.0
T-12362303,T,Accident,,201.0,Accident on Central Ave at Thomas Ave.,2018-07-31 15:31:07,2018-07-31 17:00:34,US/Eastern,35.220325,-80.812157,0.0,KCLT,1597.0,Central Ave,L,Charlotte,Mecklenburg,NC,28205.0
T-12362304,T,Accident,,201.0,Accident on Shamrock Dr Eastbound at Eastway Dr.,2018-07-31 15:35:49,2018-07-31 17:05:14,US/Eastern,35.236979999999996,-80.776505,0.0,KCLT,2922.0,Shamrock Dr,R,Charlotte,Mecklenburg,NC,28205.0
T-12362307,T,Accident,,201.0,Accident on West Blvd at Belle Oak Dr.,2018-07-31 15:46:40,2018-07-31 17:01:08,US/Eastern,35.193413,-80.935524,0.0,KCLT,7401.0,Byrum Dr,L,Charlotte,Mecklenburg,NC,28217.0
T-12362308,T,Accident,,201.0,Lane blocked due to accident on US-74 Wilkinson Blvd at Mulberry Church Rd.,2018-07-31 15:44:09,2018-07-31 16:58:38,US/Eastern,35.229801,-80.918236,0.0,KCLT,4753.0,Wilkinson Blvd,L,Charlotte,Mecklenburg,NC,28208.0
T-12362313,T,Accident,,201.0,Accident on Shopton Rd at NC-160 Old Steele Creek Rd.,2018-07-31 15:51:06,2018-07-31 17:20:08,US/Eastern,35.159447,-80.970688,0.0,KCLT,9651.0,Steele Creek Rd,L,Charlotte,Mecklenburg,NC,28273.0
T-12362319,T,Accident,,201.0,Accident on Moores Chapel Rd at Kendall Dr.,2018-07-31 16:14:29,2018-07-31 16:44:24,US/Eastern,35.27401,-80.959854,0.0,KCLT,,Moores Chapel Rd,R,Charlotte,Mecklenburg,NC,28214.0
T-12362320,T,Accident,,201.0,Accident on Country Ln at NC-16 Providence Rd.,2018-07-31 16:19:56,2018-07-31 16:49:45,US/Eastern,35.076786,-80.772575,0.0,KEQY,,Country Ln,R,Charlotte,Mecklenburg,NC,28277.0
T-12362326,T,Accident,,201.0,Accident on Holt St at 35th St.,2018-07-31 16:25:54,2018-07-31 16:55:47,US/Eastern,35.241240999999995,-80.799065,0.0,KCLT,1201.0,E 35th St,L,Charlotte,Mecklenburg,NC,28205.0
T-12362331,T,Accident,,201.0,Accident on US-29 Morehead St at Summit Ave.,2018-07-31 16:37:26,2018-07-31 17:07:20,US/Eastern,35.228996,-80.8638,0.0,KCLT,1400.0,W Morehead St,R,Charlotte,Mecklenburg,NC,28208.0
T-12362338,T,Accident,,201.0,Accident on NC-24 W.T. Harris Blvd at Lawyers Rd.,2018-07-31 16:57:28,2018-07-31 17:27:23,US/Eastern,35.205624,-80.726021,0.0,KEQY,8428.0,E W.T. Harris Blvd,L,Charlotte,Mecklenburg,NC,28227.0
T-12362339,T,Accident,,201.0,Accident on Park Ave at South Blvd.,2018-07-31 17:01:28,2018-07-31 17:31:20,US/Eastern,35.213669,-80.855591,0.0,KCLT,176.0,E Park Ave,R,Charlotte,Mecklenburg,NC,28203.0
T-12362340,T,Accident,,201.0,Accident on Eastway Dr at Finchley Dr.,2018-07-31 17:00:16,2018-07-31 17:30:10,US/Eastern,35.243790000000004,-80.780441,0.0,KCLT,936.0,Eastway Dr,R,Charlotte,Mecklenburg,NC,28205.0
T-12362342,T,Accident,,201.0,Accident on NC-16 3rd St at Baldwin Ave.,2018-07-31 17:05:53,2018-07-31 17:35:41,US/Eastern,35.212158,-80.829002,0.0,KCLT,1525.0,E 3rd St,L,Charlotte,Mecklenburg,NC,28204.0
T-12362350,T,Accident,,201.0,Accident on US-29 Morehead St at US-74 Wilkinson Blvd.,2018-07-31 17:26:01,2018-07-31 17:55:53,US/Eastern,35.223782,-80.878433,0.0,KCLT,,W Morehead St,R,Charlotte,Mecklenburg,NC,28208.0
T-12362354,T,Accident,,201.0,Accident on Brevard St at New Calvine St.,2018-07-31 17:32:07,2018-07-31 18:01:56,US/Eastern,35.231331,-80.830421,0.0,KCLT,923.0,N Brevard St,L,Charlotte,Mecklenburg,NC,28206.0
T-12362356,T,Accident,,201.0,Accident on Rozzelles Ferry Rd at Idaho Dr.,2018-07-31 17:32:59,2018-07-31 18:02:54,US/Eastern,35.255085,-80.873077,0.0,KCLT,,Idaho Dr,R,Charlotte,Mecklenburg,NC,28216.0
T-12362359,T,Accident,,201.0,Accident on SC-160 at I-77.,2018-07-31 17:40:32,2018-07-31 18:10:20,US/Eastern,35.027859,-80.965248,0.0,KUZA,,Highway 160 W,R,Fort Mill,York,SC,29708.0
T-12362360,T,Accident,,201.0,Accident on US-521 Johnston Rd at Ballantyne Commons Pkwy.,2018-07-31 17:41:11,2018-07-31 18:11:03,US/Eastern,35.054649,-80.850349,0.0,KEQY,,Johnston Rd,R,Charlotte,Mecklenburg,NC,28277.0
T-12362361,T,Accident,,201.0,Accident on Kenilworth Ave at Charlottetowne Ave.,2018-07-31 17:42:33,2018-07-31 18:12:14,US/Eastern,35.21394,-80.83740999999999,0.0,KCLT,,Kenilworth Ave,R,Charlotte,Mecklenburg,NC,28204.0
T-12362362,T,Accident,,201.0,Accident on I-85 Southbound at Exit 42 US-29 Tryon St.,2018-07-31 17:41:43,2018-07-31 18:11:26,US/Eastern,35.284317,-80.77533000000001,0.0,KJQF,,I-85 N,R,Charlotte,Mecklenburg,NC,28262.0
T-12362367,T,Accident,,201.0,Accident on NC-49 Tryon St at Tremont Ave.,2018-07-31 17:50:47,2018-07-31 18:20:42,US/Eastern,35.211147,-80.86653100000001,0.0,KCLT,395.0,W Tremont Ave,L,Charlotte,Mecklenburg,NC,28203.0
T-12362373,T,Accident,,201.0,Accident on Valleyview Dr at Hickory Grove Rd.,2018-07-31 18:17:06,2018-07-31 18:47:00,US/Eastern,35.223873,-80.741608,0.0,KCLT,2456.0,Valleyview Dr,L,Charlotte,Mecklenburg,NC,28212.0
T-12362374,T,Accident,,201.0,Accident on Hickory Grove Rd at Valleyview Dr.,2018-07-31 18:17:17,2018-07-31 18:47:10,US/Eastern,35.223873,-80.741608,0.0,KCLT,2456.0,Valleyview Dr,L,Charlotte,Mecklenburg,NC,28212.0
T-12362375,T,Accident,,201.0,Accident on Prosperity Ridge Rd at Ridge Rd.,2018-07-31 18:15:32,2018-07-31 18:45:23,US/Eastern,35.37262,-80.780342,0.0,KJQF,4901.0,Ridge Rd,R,Charlotte,Mecklenburg,NC,28269.0
T-12362377,T,Accident,,201.0,Accident on Shamrock Dr at Hickory Grove Rd.,2018-07-31 18:19:26,2018-07-31 18:49:20,US/Eastern,35.2239,-80.744637,0.0,KJQF,,Hickory Grove Rd,R,Charlotte,Mecklenburg,NC,28215.0
T-12362383,T,Accident,,201.0,Accident on Luvera Ln at Hawkwatch Ln.,2018-07-31 18:30:39,2018-07-31 19:00:35,US/Eastern,35.069813,-81.040291,0.0,KUZA,17427.0,Hawkwatch Ln,R,Charlotte,Mecklenburg,NC,28278.0
T-12362389,T,Accident,,201.0,Accident on Rea Rd at I-485.,2018-07-31 18:50:39,2018-07-31 19:20:33,US/Eastern,35.064121,-80.815758,0.0,KEQY,,I-485 N,R,Charlotte,Mecklenburg,NC,28277.0
T-12362391,T,Accident,,201.0,Accident on I-485 clockwise at Exit 59 Rea Rd.,2018-07-31 18:53:40,2018-07-31 19:23:31,US/Eastern,35.064121,-80.815758,0.0,KEQY,,I-485 N,R,Charlotte,Mecklenburg,NC,28277.0
T-12362394,T,Accident,,201.0,Accident on Heritage Blvd at Regent Pkwy.,2018-07-31 19:02:53,2018-07-31 19:32:43,US/Eastern,35.066265,-80.912811,0.0,KUZA,8050.0,Regent Pkwy,L,Fort Mill,York,SC,29715.0
T-12362395,T,Accident,,201.0,Accident on Sardis Rd at NC-16 Providence Rd.,2018-07-31 19:01:42,2018-07-31 19:31:22,US/Eastern,35.15443,-80.79496800000001,0.0,KCLT,,Sardis Rd,R,Charlotte,Mecklenburg,NC,28226.0
T-12362398,T,Accident,,201.0,Accident on Foxford Pl at Shamrock Dr.,2018-07-31 19:11:57,2018-07-31 20:26:39,US/Eastern,35.235065000000006,-80.76308399999999,0.0,KJQF,3698.0,Shamrock Dr,R,Charlotte,Mecklenburg,NC,28215.0
T-12362408,T,Accident,,201.0,Accident on Wendover Rd at NC-16 Providence Rd.,2018-07-31 19:20:38,2018-07-31 20:35:23,US/Eastern,35.177341,-80.817497,0.0,KCLT,,S Wendover Rd,R,Charlotte,Mecklenburg,NC,28211.0
T-12362409,T,Accident,,201.0,Accident on US-74 Wilkinson Blvd at Morris Field Dr.,2018-07-31 19:20:57,2018-07-31 20:35:44,US/Eastern,35.226406,-80.910301,0.0,KCLT,,Wilkinson Blvd,R,Charlotte,Mecklenburg,NC,28208.0
T-12362420,T,Accident,,201.0,Accident on Commack Dr near Flagler Ln.,2018-07-31 19:41:02,2018-07-31 20:40:39,US/Eastern,35.297298,-80.901329,0.0,KCLT,6720.0,Commack Dr,R,Charlotte,Mecklenburg,NC,28216.0
T-12362424,T,Accident,,201.0,Accident on US-21 Statesville Rd at Gilead Rd.,2018-07-31 19:46:12,2018-07-31 20:15:59,US/Eastern,35.40987,-80.854897,0.0,KJQF,14198.0,Statesville Rd,R,Huntersville,Mecklenburg,NC,28078.0
T-12362425,T,Accident,,201.0,Accident on US-21 at Garrison Farm Rd.,2018-07-31 19:47:43,2018-07-31 20:17:33,US/Eastern,35.072948,-80.93544,0.0,KUZA,2997.0,Highway 21 Byp,L,Fort Mill,York,SC,29715.0
T-12362438,T,Accident,,201.0,Accident on US-521 Lancaster Hwy both ways at Ardrey Kell Rd.,2018-07-31 20:03:22,2018-07-31 20:32:51,US/Eastern,35.021946,-80.84902199999999,0.0,KEQY,,Lancaster Hwy,R,Charlotte,Mecklenburg,NC,28277.0
T-12362462,T,Accident,,201.0,Accident on I-77 Northbound at Exit 90 US-21.,2018-07-31 20:47:40,2018-07-31 21:17:28,US/Eastern,35.092087,-80.933495,0.0,KUZA,,Highway 21,R,Fort Mill,York,SC,29715.0
T-12362496,T,Accident,,201.0,Accident on I-77 Northbound at Exit 1A-B Westinghouse Blvd.,2018-07-31 21:11:57,2018-07-31 21:41:43,US/Eastern,35.114655,-80.92411,0.0,KCLT,,Westinghouse Blvd,R,Charlotte,Mecklenburg,NC,28273.0
T-12362516,T,Accident,,241.0,Lane blocked due to accident on Pleasant Rd at Coltharp Rd.,2018-07-31 21:29:51,2018-07-31 21:59:32,US/Eastern,35.035934000000005,-80.969269,0.0,KUZA,1700.0,Coltharp Rd,R,Fort Mill,York,SC,29715.0
T-12362550,T,Accident,,201.0,Accident on Billy Graham Pkwy both ways at I-85.,2018-07-31 21:47:33,2018-07-31 22:16:55,US/Eastern,35.239235,-80.919617,0.0,KCLT,,Billy Graham Pkwy,R,Charlotte,Mecklenburg,NC,28208.0
T-12362579,T,Accident,,201.0,Accident on I-277 both ways at Exit 1E South Blvd.,2018-07-31 22:26:49,2018-07-31 22:56:24,US/Eastern,35.219425,-80.84671,0.0,KCLT,,US-74 W,R,Charlotte,Mecklenburg,NC,28202.0
T-12362585,T,Accident,,201.0,Accident on I-277 both ways at Exit 1E College St.,2018-07-31 22:37:53,2018-07-31 23:07:20,US/Eastern,35.22287,-80.851608,0.0,KCLT,,I-277 N,R,Charlotte,Mecklenburg,NC,28202.0
T-12362586,T,Accident,,201.0,Accident on I-85 Southbound at Exit 32 Little Rock Rd.,2018-07-31 22:38:23,2018-07-31 23:07:55,US/Eastern,35.241153999999995,-80.93897199999999,0.0,KCLT,,Little Rock Rd,R,Charlotte,Mecklenburg,NC,28214.0
T-12362608,T,Accident,,201.0,Accident on I-77 Southbound at Exit 9 John Belk Fwy W.,2018-08-01 00:06:42,2018-08-01 00:36:26,US/Eastern,35.224647999999995,-80.865509,0.0,KCLT,,I-77 S,R,Charlotte,Mecklenburg,NC,28208.0
T-12390348,T,Accident,,343.0,Earlier accident on Idlewild Rd at Bathurst Dr.,2018-08-01 08:23:38,2018-08-01 08:53:13,US/Eastern,35.174984,-80.716629,0.0,KEQY,9101.0,Idlewild Rd,R,Charlotte,Mecklenburg,NC,28227.0
T-12390351,T,Accident,,201.0,Accident on Mount Holly Hntrsvlle Rd at Sheltonham Way.,2018-08-01 08:37:53,2018-08-01 09:07:24,US/Eastern,35.349548,-80.880165,0.0,KJQF,8799.0,Sheltonham Way,R,Huntersville,Mecklenburg,NC,28078.0
T-12390352,T,Accident,,201.0,Accident on Davidson St at Parkwood Ave.,2018-08-01 08:47:58,2018-08-01 09:17:13,US/Eastern,35.235332,-80.82061,0.0,KCLT,1701.0,N Davidson St,L,Charlotte,Mecklenburg,NC,28206.0
T-12390358,T,Accident,,201.0,Accident on Choate Cir Eastbound from Lakes Dr to Greenway Industrial Dr.,2018-08-01 09:27:28,2018-08-01 09:56:34,US/Eastern,35.09856,-80.951576,0.0,KCLT,15242.0,Choate Cir,R,Charlotte,Mecklenburg,NC,28273.0
T-12390361,T,Accident,,201.0,Accident on I-485 Inner Loop Northbound at I-485.,2018-08-01 10:07:07,2018-08-01 10:36:14,US/Eastern,35.190956,-80.96901700000001,0.0,KUZA,9001.0,Garrison Rd,R,Charlotte,Mecklenburg,NC,28278.0
T-12390362,T,Accident,,201.0,Accident on I-485 Inner Loop Northbound at US-74 Wilkinson Blvd.,2018-08-01 10:08:04,2018-08-01 10:37:27,US/Eastern,35.239475,-80.969864,0.0,KCLT,,Wilkinson Blvd,R,Charlotte,Mecklenburg,NC,28214.0
T-12390366,T,Accident,,201.0,Accident on NC-49 Tryon St at Nevada Blvd.,2018-08-01 10:21:59,2018-08-01 10:51:37,US/Eastern,35.123775,-80.945061,0.0,KCLT,9899.0,S Tryon St,L,Charlotte,Mecklenburg,NC,28273.0
T-12390368,T,Accident,,201.0,Accident on US-74 Independence Blvd at Sardis Rd.,2018-08-01 10:31:51,2018-08-01 11:01:33,US/Eastern,35.147636,-80.724655,0.0,KEQY,8567.0,E Independence Blvd,R,Charlotte,Mecklenburg,NC,28227.0
T-12390397,T,Accident,,201.0,Accident on Carolina Academy Rd at US-521 Lancaster Hwy.,2018-08-01 11:39:09,2018-08-01 12:08:55,US/Eastern,35.017666,-80.850288,0.0,KEQY,17100.0,Lancaster Hwy,L,Charlotte,Mecklenburg,NC,28277.0
T-12390400,T,Accident,,201.0,Accident on NC-24 Albemarle Rd at NC-51 Blair Rd.,2018-08-01 11:39:46,2018-08-01 12:09:11,US/Eastern,35.223324,-80.62908900000001,0.0,KEQY,13299.0,Albemarle Rd,L,Charlotte,Mecklenburg,NC,28227.0
T-12390405,T,Accident,,201.0,Accident on Sharon Amity Rd at Randolph Rd.,2018-08-01 11:43:13,2018-08-01 12:13:01,US/Eastern,35.175934000000005,-80.79827900000001,0.0,KCLT,4498.0,Randolph Rd,R,Charlotte,Mecklenburg,NC,28211.0
T-12390407,T,Accident,,201.0,Accident on NC-16 Brookshire Blvd at Rozzelles Ferry Rd .,2018-08-01 11:41:21,2018-08-01 12:11:01,US/Eastern,35.338539000000004,-80.963699,0.0,KCLT,,Brookshire Blvd,R,Charlotte,Mecklenburg,NC,28214.0
T-12390408,T,Accident,,201.0,Accident on US-21 Statesville Rd at Compass St.,2018-08-01 11:42:33,2018-08-01 12:11:25,US/Eastern,35.414078,-80.85620899999999,0.0,KJQF,14498.0,Statesville Rd,R,Huntersville,Mecklenburg,NC,28078.0
T-12390420,T,Accident,,201.0,Accident on Cavendish Ct at NC-16 Providence Rd .,2018-08-01 11:56:12,2018-08-01 12:25:57,US/Eastern,35.163071,-80.80154399999999,0.0,KCLT,,Cavendish Ct,R,Charlotte,Mecklenburg,NC,28211.0
T-12390421,T,Accident,,201.0,Accident on Stonewall St at NC-27 McDowell St .,2018-08-01 11:57:35,2018-08-01 12:27:24,US/Eastern,35.216476,-80.840523,0.0,KCLT,,E Stonewall St,R,Charlotte,Mecklenburg,NC,28202.0
T-12390422,T,Accident,,201.0,Accident on Twin Lakes Pkwy at Sam Roper Dr.,2018-08-01 11:57:59,2018-08-01 12:27:46,US/Eastern,35.369228,-80.837532,0.0,KJQF,10750.0,Twin Lakes Pkwy,L,Charlotte,Mecklenburg,NC,28269.0
T-12390423,T,Accident,,201.0,Accident on NC-16 Providence Rd at Fairview Rd .,2018-08-01 12:00:00,2018-08-01 12:29:41,US/Eastern,35.15443,-80.79496800000001,0.0,KCLT,,Sardis Rd,R,Charlotte,Mecklenburg,NC,28226.0
T-12390434,T,Accident,,201.0,Accident on US-74 Independence Blvd at Briar Creek Rd.,2018-08-01 12:16:38,2018-08-01 12:46:21,US/Eastern,35.207024,-80.796341,0.0,KCLT,,Briar Creek Rd,R,Charlotte,Mecklenburg,NC,28205.0
T-12390436,T,Accident,,201.0,Accident on Community House Rd at Johnston Rd.,2018-08-01 12:19:18,2018-08-01 12:49:06,US/Eastern,35.070423,-80.84291800000001,0.0,KEQY,12401.0,Johnston Rd,R,Charlotte,Mecklenburg,NC,28277.0
T-12390437,T,Accident,,201.0,Accident on Scott Futrell Dr Southbound at Billy Graham Pkwy.,2018-08-01 12:17:31,2018-08-01 12:47:07,US/Eastern,35.237064000000004,-80.92025799999999,0.0,KCLT,5019.0,Billy Graham Pkwy,R,Charlotte,Mecklenburg,NC,28208.0
T-12390438,T,Accident,,201.0,Accident on Medical Plaza Dr at J.N. Pease Pl.,2018-08-01 12:17:05,2018-08-01 12:46:40,US/Eastern,35.319618,-80.77555799999999,0.0,KJQF,8374.0,Medical Plaza Dr,R,Charlotte,Mecklenburg,NC,28262.0
T-12390442,T,Accident,,201.0,Accident on US-21 Statesville Rd Southbound at Gibbon Rd.,2018-08-01 12:28:58,2018-08-01 12:58:27,US/Eastern,35.320747,-80.842125,0.0,KJQF,7223.0,Statesville Rd,L,Charlotte,Mecklenburg,NC,28269.0
T-12390445,T,Accident,,201.0,Center lane blocked due to accident on US-74 Independence Blvd at Eastway Dr.,2018-08-01 12:32:10,2018-08-01 13:01:47,US/Eastern,35.202007,-80.786354,0.0,KCLT,,N Wendover Rd,R,Charlotte,Mecklenburg,NC,28205.0
T-12390446,T,Accident,,201.0,Accident on Sunset Rd at Northpark Blvd.,2018-08-01 12:31:32,2018-08-01 13:01:23,US/Eastern,35.306442,-80.853615,0.0,KCLT,6402.0,Northpark Blvd,L,Charlotte,Mecklenburg,NC,28216.0
T-12390447,T,Accident,,201.0,Accident on US-21 Statesville Rd Eastbound at Lakeview Rd.,2018-08-01 12:31:15,2018-08-01 13:00:54,US/Eastern,35.335678,-80.842667,0.0,KJQF,5801.0,Lakeview Rd,L,Charlotte,Mecklenburg,NC,28269.0
T-12390461,T,Accident,,201.0,Accident on Ridgeway Ave at 7th St.,2018-08-01 12:52:07,2018-08-01 13:21:46,US/Eastern,35.210651,-80.815628,0.0,KCLT,401.0,Ridgeway Ave,L,Charlotte,Mecklenburg,NC,28204.0
T-12390472,T,Accident,,201.0,Accident on Westinghouse Blvd at Granite St.,2018-08-01 13:22:44,2018-08-01 13:52:13,US/Eastern,35.116673,-80.928276,0.0,KCLT,899.0,Westinghouse Blvd,R,Charlotte,Mecklenburg,NC,28273.0
T-12390481,T,Accident,,201.0,Accident on College St at Stonewall St.,2018-08-01 13:51:16,2018-08-01 14:37:00,US/Eastern,35.222485,-80.847412,0.0,KCLT,599.0,S College St,L,Charlotte,Mecklenburg,NC,28202.0
T-12390485,T,Accident,,201.0,Accident on Endhaven Ln at Community House Rd.,2018-08-01 14:04:38,2018-08-01 14:34:26,US/Eastern,35.068034999999995,-80.839035,0.0,KEQY,12001.0,N Community House Rd,L,Charlotte,Mecklenburg,NC,28277.0
T-12390487,T,Accident,,201.0,Accident on NC-49 Tryon St Southbound at Billy Graham Pkwy.,2018-08-01 14:06:42,2018-08-01 14:35:29,US/Eastern,35.180401,-80.88961,0.0,KCLT,4648.0,S Tryon St,R,Charlotte,Mecklenburg,NC,28217.0
T-12390488,T,Accident,,201.0,Accident on NC-160 West Blvd at Doctor Carver Rd.,2018-08-01 14:17:35,2018-08-01 14:47:07,US/Eastern,35.21413,-80.88934300000001,0.0,KCLT,1901.0,West Blvd,L,Charlotte,Mecklenburg,NC,28208.0
T-12390504,T,Accident,,247.0,Delays and Right lane blocked due to accident on I-85 Southbound at NC-7 McAdenville Rd.,2018-08-01 15:03:35,2018-08-01 15:33:10,US/Eastern,35.257416,-81.043755,0.0,KCLT,,I-85 S,R,Belmont,Gaston,NC,28012.0
T-12390506,T,Accident,,201.0,Accident on Caldwell St Northbound between 3rd St and 4th St.,2018-08-01 15:06:56,2018-08-01 15:35:44,US/Eastern,35.223071999999995,-80.840149,0.14000000059599998,KCLT,448.0,E 4th St,R,Charlotte,Mecklenburg,NC,28202.0
T-12390507,T,Accident,,201.0,Accident on NC-49 Tryon St at Choate Cir.,2018-08-01 15:08:58,2018-08-01 15:38:42,US/Eastern,35.107921999999995,-80.978661,0.0,KCLT,12299.0,S Tryon St,L,Charlotte,Mecklenburg,NC,28273.0
T-12390510,T,Accident,,201.0,Accident on Shamrock Dr at Tipperary Pl.,2018-08-01 15:26:34,2018-08-01 15:56:05,US/Eastern,35.23455,-80.760559,0.0,KJQF,3800.0,Shamrock Dr,R,Charlotte,Mecklenburg,NC,28215.0
T-12390514,T,Accident,,201.0,Accident on Mallard Creek Rd at Nevin Rd.,2018-08-01 15:35:32,2018-08-01 16:05:19,US/Eastern,35.304317,-80.798248,0.0,KJQF,6428.0,Mallard Creek Rd,R,Charlotte,Mecklenburg,NC,28262.0
T-12390519,T,Accident,,201.0,Accident on Pecan Ave at Gordon St.,2018-08-01 15:46:41,2018-08-01 16:16:24,US/Eastern,35.219929,-80.813622,0.0,KCLT,1298.0,Gordon St,R,Charlotte,Mecklenburg,NC,28205.0
T-12390520,T,Accident,,201.0,Accident on South Blvd at Tyvola Rd.,2018-08-01 15:54:01,2018-08-01 16:23:37,US/Eastern,35.164906,-80.876122,0.0,KCLT,5300.0,South Blvd,R,Charlotte,Mecklenburg,NC,28217.0
T-12390522,T,Accident,,201.0,Accident on Rea Rd at Piper Glen Dr.,2018-08-01 15:58:42,2018-08-01 16:28:31,US/Eastern,35.067485999999995,-80.818031,0.0,KEQY,,Piper Glen Dr,R,Charlotte,Mecklenburg,NC,28277.0
T-12390524,T,Accident,,201.0,Accident on Piper Glen Dr at Rea Rd.,2018-08-01 16:02:46,2018-08-01 16:32:38,US/Eastern,35.067485999999995,-80.818031,0.0,KEQY,,Piper Glen Dr,R,Charlotte,Mecklenburg,NC,28277.0
T-12390539,T,Accident,,201.0,Accident on NC-49 Tryon St at York Center Dr.,2018-08-01 16:37:08,2018-08-01 17:07:02,US/Eastern,35.121387,-80.949219,0.0,KCLT,10203.0,S Tryon St,L,Charlotte,Mecklenburg,NC,28273.0
T-12390543,T,Accident,,201.0,Accident on NC-16 Brookshire Blvd at Nelson Ave.,2018-08-01 16:46:37,2018-08-01 17:16:32,US/Eastern,35.260506,-80.875816,0.0,KCLT,201.0,Nelson Ave,L,Charlotte,Mecklenburg,NC,28216.0
T-12390549,T,Accident,,201.0,Accident on Nelson Ave at NC-16 Brookshire Blvd.,2018-08-01 17:12:10,2018-08-01 17:42:00,US/Eastern,35.260506,-80.875816,0.0,KCLT,201.0,Nelson Ave,L,Charlotte,Mecklenburg,NC,28216.0
T-12390559,T,Accident,,201.0,Accident on Torrence St at Elizabeth Ave.,2018-08-01 17:55:48,2018-08-01 18:25:41,US/Eastern,35.21476,-80.827904,0.0,KCLT,1498.0,Elizabeth Ave,R,Charlotte,Mecklenburg,NC,28204.0
T-12390560,T,Accident,,201.0,Accident on I-277 Westbound at Exits 3A 3B College St.,2018-08-01 18:01:29,2018-08-01 18:31:03,US/Eastern,35.232037,-80.833855,0.0,KCLT,,N College St,R,Charlotte,Mecklenburg,NC,28206.0
T-12390564,T,Accident,,201.0,Accident on NC-51 Pineville-Matthews Rd at Johnston Rd.,2018-08-01 18:21:51,2018-08-01 18:51:43,US/Eastern,35.087672999999995,-80.852898,0.0,KCLT,,Pineville-Matthews Rd,R,Charlotte,Mecklenburg,NC,28226.0
T-12390569,T,Accident,,201.0,Accident on Sharon Rd at Brandon Forest Dr.,2018-08-01 18:26:57,2018-08-01 18:56:50,US/Eastern,35.117374,-80.859421,0.0,KCLT,2597.0,Sharon Rd W,L,Charlotte,Mecklenburg,NC,28210.0
T-12390570,T,Accident,,201.0,Accident on Brandon Forest Dr at Sharon Rd.,2018-08-01 18:31:01,2018-08-01 19:00:52,US/Eastern,35.117374,-80.859421,0.0,KCLT,2597.0,Sharon Rd W,L,Charlotte,Mecklenburg,NC,28210.0
T-12390571,T,Accident,,201.0,Accident on NC-16 Brookshire Blvd at I-85.,2018-08-01 18:42:46,2018-08-01 19:12:39,US/Eastern,35.262142,-80.87841800000001,0.0,KCLT,,I-85 N,R,Charlotte,Mecklenburg,NC,28216.0
T-12390574,T,Accident,,201.0,Accident on Arboretum Shopping Center Dr at NC-51 Pineville-Matthews Rd.,2018-08-01 18:51:18,2018-08-01 19:21:07,US/Eastern,35.101051,-80.776382,0.0,KEQY,,Arboretum Dr,R,Charlotte,Mecklenburg,NC,28270.0
T-12390585,T,Accident,,201.0,Accident on Briar Creek Rd at US-74 Independence Blvd.,2018-08-01 19:34:25,2018-08-01 20:04:19,US/Eastern,35.207024,-80.796341,0.0,KCLT,,Briar Creek Rd,R,Charlotte,Mecklenburg,NC,28205.0
T-12390589,T,Accident,,201.0,Accident on Sardis Rd at Monroe Rd.,2018-08-01 19:35:06,2018-08-01 20:04:58,US/Eastern,35.138859000000004,-80.738884,0.0,KEQY,9800.0,Monroe Rd,L,Charlotte,Mecklenburg,NC,28270.0
T-12390591,T,Accident,,201.0,Accident on Gaynor Rd at Randolph Rd.,2018-08-01 19:44:37,2018-08-01 20:14:29,US/Eastern,35.174763,-80.79780600000001,0.0,KCLT,4400.0,Gaynor Rd,R,Charlotte,Mecklenburg,NC,28211.0
T-12390596,T,Accident,,201.0,Accident on US-29 Morehead St at Cedar St.,2018-08-01 19:53:16,2018-08-01 20:23:12,US/Eastern,35.226890999999995,-80.856712,0.0,KCLT,801.0,W Morehead St,L,Charlotte,Mecklenburg,NC,28208.0
T-12390597,T,Accident,,201.0,Accident on US-521 Johnston Rd at Ballantyne Crossing Ave.,2018-08-01 19:56:33,2018-08-01 20:26:28,US/Eastern,35.046993,-80.848137,0.0,KEQY,14518.0,Johnston Rd,L,Charlotte,Mecklenburg,NC,28277.0
T-12390630,T,Accident,,201.0,Accident on US-29 Tryon St both ways at Wrayhill Dr.,2018-08-01 20:36:24,2018-08-01 21:05:44,US/Eastern,35.343796000000005,-80.697891,0.0,KJQF,12730.0,N Tryon St,R,Charlotte,Mecklenburg,NC,28262.0
T-12390697,T,Accident,,201.0,Accident on I-85 Southbound at I-485.,2018-08-01 21:32:47,2018-08-01 22:02:30,US/Eastern,35.248528,-80.96751400000001,0.0,KCLT,,I-85 N,R,Charlotte,Mecklenburg,NC,28214.0
T-12390794,T,Accident,,201.0,Accident on I-485 Northbound at Exit 1 NC-49 Tryon St.,2018-08-01 22:13:32,2018-08-01 22:43:19,US/Eastern,35.141422,-80.931763,0.0,KCLT,,S Tryon St,R,Charlotte,Mecklenburg,NC,28273.0
T-12390798,T,Accident,,201.0,Lane closed due to accident on Johnston Rd Northbound at NC-51 Pineville-Matthews Rd.,2018-08-01 22:15:38,2018-08-01 22:45:13,US/Eastern,35.087672999999995,-80.852898,0.0,KCLT,,Pineville-Matthews Rd,R,Charlotte,Mecklenburg,NC,28226.0
T-12390806,T,Accident,,201.0,Accident on I-277 both ways at Exit 1E South Blvd.,2018-08-01 22:19:50,2018-08-01 22:49:29,US/Eastern,35.21788,-80.844955,0.0,KCLT,,I-277 N,R,Charlotte,Mecklenburg,NC,28202.0
T-12390807,T,Accident,,201.0,Accident on I-277 both ways at Exit 2B NC-27 McDowell St.,2018-08-01 22:19:22,2018-08-01 22:48:46,US/Eastern,35.220264,-80.831902,0.0,KCLT,,I-277 N,R,Charlotte,Mecklenburg,NC,28204.0
T-12390808,T,Accident,,201.0,Accident on I-85 Northbound at Exit 37 Beatties Ford Rd.,2018-08-01 22:18:43,2018-08-01 22:47:56,US/Eastern,35.271347,-80.85311899999999,0.0,KCLT,,I-85 N,R,Charlotte,Mecklenburg,NC,28216.0
T-12390867,T,Accident,,201.0,Accident on Shamrock Dr at Anne St.,2018-08-01 23:52:09,2018-08-02 00:36:56,US/Eastern,35.234913,-80.787399,0.0,KCLT,2168.0,Shamrock Dr,R,Charlotte,Mecklenburg,NC,28205.0
T-12390892,T,Accident,,201.0,Accident on I-485 Eastbound at I-77.,2018-08-02 01:39:27,2018-08-02 02:09:10,US/Eastern,35.361946,-80.842674,0.0,KJQF,,I-77 S,R,Huntersville,Mecklenburg,NC,28078.0
T-12417732,T,Accident,,201.0,Accident on Tyvola Rd at Speer Blvd.,2018-08-02 08:50:37,2018-08-02 09:20:24,US/Eastern,35.179996,-80.91409300000001,0.0,KCLT,,W Tyvola Rd,R,Charlotte,Mecklenburg,NC,28217.0
T-12417738,T,Accident,,201.0,Accident on US-29 Morehead St at Cedar St.,2018-08-02 09:40:11,2018-08-02 10:09:55,US/Eastern,35.226890999999995,-80.856712,0.0,KCLT,801.0,W Morehead St,L,Charlotte,Mecklenburg,NC,28208.0
T-12417743,T,Accident,,201.0,Accident on I-77 Southbound at Woodlawn Rd.,2018-08-02 10:06:06,2018-08-02 10:35:35,US/Eastern,35.180077000000004,-80.886864,0.0,KCLT,,I-77 S,R,Charlotte,Mecklenburg,NC,28217.0
T-12417746,T,Accident,,201.0,Left lane blocked due to accident on I-77 Southbound at Wilkinson Blvd.,2018-08-02 10:08:18,2018-08-02 10:37:40,US/Eastern,35.2244,-80.865578,0.0,KCLT,,I-77 N,R,Charlotte,Mecklenburg,NC,28208.0
T-12417748,T,Accident,,201.0,Accident on I-77 Southbound at I-485 .,2018-08-02 10:25:00,2018-08-02 10:54:37,US/Eastern,35.125206,-80.917503,0.0,KCLT,,I-485 S,R,Charlotte,Mecklenburg,NC,28273.0
T-12417750,T,Accident,,201.0,Accident on Pressley Rd at Bishop Dr.,2018-08-02 10:35:51,2018-08-02 11:05:30,US/Eastern,35.189037,-80.89286,0.0,KCLT,801.0,Pressley Rd,L,Charlotte,Mecklenburg,NC,28217.0
T-12417755,T,Accident,,201.0,Accident on Sugar Creek Rd at Hubbard Rd.,2018-08-02 10:50:36,2018-08-02 11:20:11,US/Eastern,35.325603,-80.802032,0.0,KJQF,4598.0,Hubbard Rd,R,Charlotte,Mecklenburg,NC,28269.0
T-12417756,T,Accident,,201.0,Accident on Hubbard Falls Dr Northbound near Sugar Creek Rd.,2018-08-02 10:52:36,2018-08-02 11:21:41,US/Eastern,35.329445,-80.800735,0.0,KJQF,5823.0,W Sugar Creek Rd,L,Charlotte,Mecklenburg,NC,28269.0
T-12417759,T,Accident,,201.0,Accident on Carmel Rd near Crossgate Rd.,2018-08-02 11:07:01,2018-08-02 11:52:00,US/Eastern,35.12175,-80.818428,0.0,KCLT,3535.0,Carmel Rd,L,Charlotte,Mecklenburg,NC,28226.0
T-12417768,T,Accident,,201.0,Accident on I-277 Brookshire Fwy Eastbound at College St.,2018-08-02 11:29:52,2018-08-02 11:59:04,US/Eastern,35.232037,-80.833855,0.0,KCLT,,N College St,R,Charlotte,Mecklenburg,NC,28206.0
T-12417769,T,Accident,,201.0,Accident on NC-24 Albemarle Rd at Pine Grove Ave.,2018-08-02 11:30:22,2018-08-02 12:00:04,US/Eastern,35.209229,-80.66391800000001,0.0,KEQY,10805.0,Albemarle Rd,L,Charlotte,Mecklenburg,NC,28227.0
T-12417771,T,Accident,,201.0,Accident on NC-49 Tryon St at I-485.,2018-08-02 11:31:56,2018-08-02 12:01:39,US/Eastern,35.141422,-80.931763,0.0,KCLT,,S Tryon St,R,Charlotte,Mecklenburg,NC,28273.0
T-12417790,T,Accident,,201.0,Accident on Tuckaseegee Rd at Camp Greene St.,2018-08-02 12:11:37,2018-08-02 12:41:26,US/Eastern,35.238045,-80.875282,0.0,KCLT,2517.0,Tuckaseegee Rd,L,Charlotte,Mecklenburg,NC,28208.0
T-12417794,T,Accident,,201.0,Accident on South Blvd at Tyvola Rd.,2018-08-02 12:12:14,2018-08-02 12:42:00,US/Eastern,35.164906,-80.876122,0.0,KCLT,5300.0,South Blvd,R,Charlotte,Mecklenburg,NC,28217.0
T-12417800,T,Accident,,201.0,Accident on Westinghouse Blvd at I-77.,2018-08-02 12:20:47,2018-08-02 12:50:35,US/Eastern,35.114655,-80.92411,0.0,KCLT,,Westinghouse Blvd,R,Charlotte,Mecklenburg,NC,28273.0
T-12417804,T,Accident,,201.0,Accident on Mallard Creek Rd at Mallard Square Ln.,2018-08-02 12:30:42,2018-08-02 13:00:22,US/Eastern,35.302895,-80.799477,0.0,KJQF,6400.0,Mallard Creek Rd,R,Charlotte,Mecklenburg,NC,28262.0
T-12417807,T,Accident,,201.0,Accident on NC-49 Tryon St at Moss Rd.,2018-08-02 12:36:28,2018-08-02 13:06:02,US/Eastern,35.115134999999995,-80.962273,0.0,KCLT,11199.0,S Tryon St,L,Charlotte,Mecklenburg,NC,28273.0
T-12417811,T,Accident,,201.0,Accident on US-21 Statesville Rd at Gilead Rd.,2018-08-02 12:41:42,2018-08-02 13:11:01,US/Eastern,35.40987,-80.854897,0.0,KJQF,14198.0,Statesville Rd,R,Huntersville,Mecklenburg,NC,28078.0
T-12417817,T,Accident,,201.0,Accident on NC-49 Morehead St at Mint St.,2018-08-02 13:01:57,2018-08-02 13:31:07,US/Eastern,35.224007,-80.853409,0.0,KCLT,,US-74 W,R,Charlotte,Mecklenburg,NC,28203.0
T-12417822,T,Accident,,201.0,Accident on Hambright Rd at Beatties Ford Rd.,2018-08-02 13:09:21,2018-08-02 13:38:41,US/Eastern,35.375183,-80.90686,0.0,KJQF,11299.0,Beatties Ford Rd,L,Huntersville,Mecklenburg,NC,28078.0
T-12417825,T,Accident,,201.0,Accident on Roslyn Ave at Turner Ave.,2018-08-02 13:22:09,2018-08-02 13:51:51,US/Eastern,35.24601,-80.863884,0.0,KCLT,2298.0,Roslyn Ave,R,Charlotte,Mecklenburg,NC,28208.0
T-12417826,T,Accident,,201.0,Accident on Shamrock Dr at Cobbleridge Dr.,2018-08-02 13:25:53,2018-08-02 13:55:40,US/Eastern,35.228401,-80.74981700000001,0.0,KJQF,4498.0,Shamrock Dr,R,Charlotte,Mecklenburg,NC,28215.0
T-12417827,T,Accident,,201.0,Accident on US-74 Wilkinson Blvd at Remount Rd.,2018-08-02 13:27:02,2018-08-02 13:56:27,US/Eastern,35.224003,-80.88323199999999,0.0,KCLT,,Remount Rd,R,Charlotte,Mecklenburg,NC,28208.0
T-12417829,T,Accident,,201.0,Accident on NC-27 Albemarle Rd at NC-24 W.T. Harris Blvd.,2018-08-02 13:30:58,2018-08-02 14:00:28,US/Eastern,35.202518,-80.72599,0.0,KCLT,6899.0,Albemarle Rd,L,Charlotte,Mecklenburg,NC,28212.0
T-12417830,T,Accident,,201.0,Accident on Buena Vista Ave at Gwynne Ave.,2018-08-02 13:34:50,2018-08-02 14:04:40,US/Eastern,35.192795000000004,-80.76949300000001,0.0,KCLT,5399.0,Buena Vista Ave,L,Charlotte,Mecklenburg,NC,28205.0
T-12417835,T,Accident,,201.0,Accident on US-29 Tryon St Northbound at Kemp St.,2018-08-02 13:37:03,2018-08-02 14:06:42,US/Eastern,35.283382,-80.763908,0.0,KJQF,6998.0,N Tryon St,R,Charlotte,Mecklenburg,NC,28213.0
T-12417852,T,Accident,,201.0,Accident on 3rd St at Kings Dr.,2018-08-02 14:41:06,2018-08-02 15:10:43,US/Eastern,35.216217,-80.832672,0.0,KCLT,,S Kings Dr,R,Charlotte,Mecklenburg,NC,28204.0
T-12417858,T,Accident,,201.0,Accident on US-29 Graham St at 5th St.,2018-08-02 14:51:02,2018-08-02 15:20:43,US/Eastern,35.231396000000004,-80.845825,0.0,KCLT,501.0,W 5th St,L,Charlotte,Mecklenburg,NC,28202.0
T-12417867,T,Accident,,201.0,Accident on Selwyn Ave at Colony Rd.,2018-08-02 15:13:52,2018-08-02 15:43:40,US/Eastern,35.173878,-80.840187,0.0,KCLT,2898.0,Selwyn Ave,R,Charlotte,Mecklenburg,NC,28209.0
T-12417871,T,Accident,,201.0,Accident on Eastfield Rd at Prosperity Church Rd .,2018-08-02 15:22:05,2018-08-02 15:51:51,US/Eastern,35.384392,-80.786713,0.0,KJQF,12999.0,Eastfield Rd,L,Huntersville,Mecklenburg,NC,28078.0
T-12417877,T,Accident,,201.0,Accident on South Blvd at I-485.,2018-08-02 15:31:01,2018-08-02 16:00:46,US/Eastern,35.101383,-80.880898,0.0,KCLT,,South Blvd,R,Pineville,Mecklenburg,NC,28134.0
T-12417878,T,Accident,,201.0,Accident on Sunset Rd at I-77 .,2018-08-02 15:30:43,2018-08-02 16:00:29,US/Eastern,35.307434,-80.848045,0.0,KCLT,,Sunset Rd,R,Charlotte,Mecklenburg,NC,28216.0
T-12417885,T,Accident,,201.0,Accident on Eastway Dr at Sugar Creek Rd.,2018-08-02 15:50:45,2018-08-02 16:20:22,US/Eastern,35.242611,-80.780037,0.0,KCLT,,Eastway Dr,R,Charlotte,Mecklenburg,NC,28205.0
T-12417896,T,Accident,,201.0,Accident on Margaret Wallace Rd at US-74 Independence Blvd.,2018-08-02 16:27:09,2018-08-02 16:57:04,US/Eastern,35.163998,-80.740662,0.0,KEQY,7103.0,E Independence Blvd,L,Charlotte,Mecklenburg,NC,28227.0
T-12417897,T,Accident,,201.0,Accident on Idlewild Rd at W.T. Harris Blvd.,2018-08-02 16:27:36,2018-08-02 16:57:27,US/Eastern,35.193371,-80.72583,0.0,KEQY,9399.0,E W.T. Harris Blvd,R,Charlotte,Mecklenburg,NC,28227.0
T-12417898,T,Accident,,201.0,Accident on NC-49 Tryon St at NC-160 West Blvd.,2018-08-02 16:29:07,2018-08-02 16:59:01,US/Eastern,35.214001,-80.861855,0.0,KCLT,300.0,West Blvd,R,Charlotte,Mecklenburg,NC,28203.0
T-12417900,T,Accident,,201.0,Accident on Wendover Rd at Monroe Rd.,2018-08-02 16:36:00,2018-08-02 17:05:45,US/Eastern,35.196739,-80.79129,0.0,KCLT,4100.0,Monroe Rd,L,Charlotte,Mecklenburg,NC,28205.0
T-12417901,T,Accident,,201.0,Accident on 7th St at US-29 Graham St.,2018-08-02 16:41:00,2018-08-02 17:10:47,US/Eastern,35.232944,-80.843727,0.0,KCLT,499.0,W 7th St,L,Charlotte,Mecklenburg,NC,28202.0
T-12417904,T,Accident,,201.0,Accident on Randolph Rd at Colonial Ave.,2018-08-02 16:54:26,2018-08-02 17:24:20,US/Eastern,35.208954,-80.822823,0.0,KCLT,1999.0,Randolph Rd,L,Charlotte,Mecklenburg,NC,28207.0
T-12417913,T,Accident,,201.0,Accident on NC-16 Providence Rd at Beverly Crest Blvd.,2018-08-02 17:21:17,2018-08-02 17:51:09,US/Eastern,35.108379,-80.778603,0.0,KEQY,,Beverly Crest Blvd,R,Charlotte,Mecklenburg,NC,28270.0
T-12417918,T,Accident,,201.0,Accident on Arrowood Rd at Nations Ford Rd.,2018-08-02 17:36:26,2018-08-02 18:06:20,US/Eastern,35.135525,-80.891853,0.0,KCLT,9000.0,Nations Ford Rd,R,Charlotte,Mecklenburg,NC,28273.0
T-12417921,T,Accident,,201.0,Accident on Ibm Dr at Old Mallard Creek Rd.,2018-08-02 17:36:43,2018-08-02 18:06:38,US/Eastern,35.316509,-80.776634,0.0,KJQF,6303.0,Ibm Dr,R,Charlotte,Mecklenburg,NC,28262.0
T-12417922,T,Accident,,201.0,Accident on David Ave at Little Rock Rd.,2018-08-02 17:40:59,2018-08-02 18:10:49,US/Eastern,35.266009999999994,-80.94058199999999,0.0,KCLT,998.0,Little Rock Rd,R,Charlotte,Mecklenburg,NC,28214.0
T-12417932,T,Accident,,201.0,Accident on Rivergate Pkwy at NC-49 Tryon St.,2018-08-02 17:55:36,2018-08-02 18:25:30,US/Eastern,35.104252,-80.985535,0.0,KCLT,,Rivergate Pkwy,R,Charlotte,Mecklenburg,NC,28273.0
T-12417933,T,Accident,,201.0,Accident on Monticello Ter at Morehead St.,2018-08-02 17:55:59,2018-08-02 18:25:52,US/Eastern,35.207294,-80.838623,0.0,KCLT,998.0,Monticello Ter,R,Charlotte,Mecklenburg,NC,28204.0
T-12417935,T,Accident,,201.0,Accident on NC-24 W.T. Harris Blvd at Brookstone Dr.,2018-08-02 17:54:56,2018-08-02 18:24:50,US/Eastern,35.333012,-80.793137,0.0,KJQF,3700.0,W W.T. Harris Blvd,L,Charlotte,Mecklenburg,NC,28269.0
T-12417958,T,Accident,,201.0,Accident on Shopton Rd at NC-49 Tryon St.,2018-08-02 18:57:46,2018-08-02 19:27:38,US/Eastern,35.162605,-80.91577099999999,0.0,KCLT,,S Tryon St,R,Charlotte,Mecklenburg,NC,28217.0
T-12417962,T,Accident,,201.0,Accident on Statesville Ave at Atando Ave.,2018-08-02 19:11:06,2018-08-02 19:40:58,US/Eastern,35.261246,-80.837013,0.0,KCLT,3099.0,Statesville Ave,L,Charlotte,Mecklenburg,NC,28206.0
T-12417965,T,Accident,,201.0,Accident on Rea Rd at Ardrey Kell Rd.,2018-08-02 19:15:36,2018-08-02 19:45:29,US/Eastern,35.033592,-80.805527,0.0,KEQY,9998.0,Rea Rd,L,Charlotte,Mecklenburg,NC,28277.0
T-12417979,T,Accident,,201.0,Accident on NC-49 Tryon St at Crescent Springs Dr.,2018-08-02 19:36:06,2018-08-02 20:05:54,US/Eastern,35.118140999999994,-80.956055,0.0,KCLT,10776.0,S Tryon St,R,Charlotte,Mecklenburg,NC,28273.0
T-12417982,T,Accident,,201.0,Accident on I-77 Southbound at NC-160 West Blvd.,2018-08-02 19:38:47,2018-08-02 20:53:47,US/Eastern,35.214264,-80.87307,0.0,KCLT,,I-77 S,R,Charlotte,Mecklenburg,NC,28203.0
T-12418054,T,Accident,,201.0,Accident on I-77 Southbound at Exit 88 SC-460 Gold Hill Rd.,2018-08-02 21:00:44,2018-08-02 21:30:34,US/Eastern,35.060925,-80.956329,0.0,KUZA,,I-77 S,R,Fort Mill,York,SC,29715.0
T-12418055,T,Accident,,201.0,Accident on SC-22 Pleasant Rd at Greenway Industrial Dr.,2018-08-02 21:01:07,2018-08-02 21:30:58,US/Eastern,35.094978000000005,-80.947365,0.0,KUZA,4216.0,Pleasant Rd,R,Fort Mill,York,SC,29708.0
T-12418076,T,Accident,,245.0,Two lanes blocked due to accident on I-77 Southbound at Exit 88 SC-460 Gold Hill Rd.,2018-08-02 21:12:09,2018-08-02 21:41:45,US/Eastern,35.060925,-80.956329,0.0,KUZA,,I-77 S,R,Fort Mill,York,SC,29715.0
T-12418196,T,Accident,,201.0,Accident on I-77 Northbound at I-277.,2018-08-02 22:12:57,2018-08-02 22:42:18,US/Eastern,35.243621999999995,-80.84706899999999,0.0,KCLT,,Brookshire Fwy E,R,Charlotte,Mecklenburg,NC,28206.0
T-12418209,T,Accident,,201.0,Accident on NC-16 both ways at I-77.,2018-08-02 22:19:04,2018-08-02 22:48:25,US/Eastern,35.244274,-80.848724,0.0,KCLT,,Brookshire Fwy E,R,Charlotte,Mecklenburg,NC,28216.0
T-12418218,T,Accident,,201.0,Accident on Monroe Rd Southbound at Timber Springs Dr.,2018-08-02 22:31:35,2018-08-02 23:01:16,US/Eastern,35.155907,-80.74838299999999,0.0,KCLT,8313.0,Monroe Rd,L,Charlotte,Mecklenburg,NC,28212.0
T-12418233,T,Accident,,201.0,Accident on Pleasant Rd at Whitley Rd.,2018-08-02 22:45:54,2018-08-02 23:15:43,US/Eastern,35.047798,-80.97120699999999,0.0,KUZA,2300.0,Pleasant Rd,R,Fort Mill,York,SC,29708.0
T-12418239,T,Accident,,201.0,Accident on I-485 Northbound at Exit 4 NC-160 Steele Creek Rd.,2018-08-02 22:51:29,2018-08-02 23:20:55,US/Eastern,35.170444,-80.968384,0.0,KUZA,,I-485 N,R,Charlotte,Mecklenburg,NC,28278.0
T-12418249,T,Accident,,201.0,Accident on I-77 Northbound at Exit 90 US-21.,2018-08-02 23:00:08,2018-08-02 23:29:49,US/Eastern,35.092087,-80.933495,0.0,KUZA,,Highway 21,R,Fort Mill,York,SC,29715.0
T-12418254,T,Accident,,201.0,Accident on I-485 Westbound at Exits 61 61A 61B US-521 Johnston Rd.,2018-08-02 23:11:52,2018-08-02 23:41:29,US/Eastern,35.065018,-80.84581,0.0,KEQY,,Johnston Rd,R,Charlotte,Mecklenburg,NC,28277.0
T-12418264,T,Accident,,201.0,Accident on NC-16 both ways at I-77 Exits 10.,2018-08-02 23:47:37,2018-08-03 00:16:40,US/Eastern,35.242626,-80.844521,0.0,KCLT,,Brookshire Fwy W,R,Charlotte,Mecklenburg,NC,28206.0
T-12418265,T,Accident,,201.0,Accident on I-77 both ways at I-85.,2018-08-02 23:52:00,2018-08-03 00:21:48,US/Eastern,35.27367,-80.844162,0.0,KJQF,,I-77 S,R,Charlotte,Mecklenburg,NC,28269.0
T-12418266,T,Accident,,201.0,Accident on I-77 Northbound at Exit 8 Remount Rd.,2018-08-02 23:59:24,2018-08-03 00:28:49,US/Eastern,35.210636,-80.874771,0.0,KCLT,,I-77 N,R,Charlotte,Mecklenburg,NC,28203.0
T-12418274,T,Accident,,201.0,Accident on I-85 Southbound at Exits 46 46A 46B Mallard Creek Church Rd.,2018-08-03 01:11:52,2018-08-03 01:41:27,US/Eastern,35.332165,-80.744354,0.0,KJQF,,W Mallard Creek Church Rd,R,Charlotte,Mecklenburg,NC,28262.0
T-12420425,T,Accident,,201.0,Accident on HSBC Way Northbound in Marvin.,2018-08-02 12:01:48,2018-08-02 12:31:12,US/Eastern,34.995869,-80.858253,0.0,KUZA,2565.0,Lengers Way,R,Fort Mill,Lancaster,SC,29707.0
T-12444436,T,Accident,,343.0,Earlier accident on Eastway Dr at Biscayne Dr.,2018-08-03 08:05:03,2018-08-03 08:34:49,US/Eastern,35.210209000000006,-80.782379,0.0,KCLT,3301.0,Eastway Dr,L,Charlotte,Mecklenburg,NC,28205.0
T-12444437,T,Accident,,201.0,Accident on Trade St at Reno Ave.,2018-08-03 08:05:42,2018-08-03 08:35:22,US/Eastern,35.254616,-80.871613,0.0,KCLT,,W Trade St,R,Charlotte,Mecklenburg,NC,28216.0
T-12444438,T,Accident,,201.0,Accident on JW Clay Blvd at US-29 Tryon St.,2018-08-03 08:10:41,2018-08-03 08:40:25,US/Eastern,35.310184,-80.745728,0.0,KJQF,9000.0,N Tryon St,L,Charlotte,Mecklenburg,NC,28262.0
T-12444441,T,Accident,,201.0,Accident on NC-49 University City Blvd at I-485 .,2018-08-03 08:26:38,2018-08-03 08:56:21,US/Eastern,35.312386,-80.707634,0.0,KJQF,,University City Blvd,R,Charlotte,Mecklenburg,NC,28213.0
T-12444460,T,Accident,,201.0,Accident on Oakdale Rd at Sunset Rd.,2018-08-03 10:37:01,2018-08-03 11:06:47,US/Eastern,35.322701,-80.901978,0.0,KCLT,3601.0,Oakdale Rd,L,Charlotte,Mecklenburg,NC,28216.0
T-12444462,T,Accident,,201.0,Accident on NC-49 Tryon St at I-485 .,2018-08-03 10:46:17,2018-08-03 11:15:46,US/Eastern,35.141422,-80.931763,0.0,KCLT,,S Tryon St,R,Charlotte,Mecklenburg,NC,28273.0
T-12444463,T,Accident,,201.0,Accident on I-485 at I-77 .,2018-08-03 10:48:06,2018-08-03 11:16:42,US/Eastern,35.125206,-80.917503,0.0,KCLT,,I-485 S,R,Charlotte,Mecklenburg,NC,28273.0
T-12444464,T,Accident,,201.0,Center lane blocked due to accident on I-485 Outer Loop Southbound at NC-49 Tryon St.,2018-08-03 10:54:22,2018-08-03 11:23:39,US/Eastern,35.141422,-80.931763,0.0,KCLT,,S Tryon St,R,Charlotte,Mecklenburg,NC,28273.0
T-12444468,T,Accident,,201.0,Accident on Crawford Dr near Merrill Pl.,2018-08-03 11:16:57,2018-08-03 12:02:00,US/Eastern,35.282115999999995,-80.861137,0.0,KCLT,1801.0,Crawford Dr,L,Charlotte,Mecklenburg,NC,28216.0
T-12444469,T,Accident,,201.0,Accident on Tolliver Dr at Sutherby Dr.,2018-08-03 11:19:00,2018-08-03 12:03:43,US/Eastern,35.036949,-80.840645,0.0,KEQY,15599.0,Tolliver Dr,R,Charlotte,Mecklenburg,NC,28277.0
T-12444470,T,Accident,,201.0,Accident on US-74 Independence Blvd Eastbound near Calibre Crossing Dr.,2018-08-03 11:18:31,2018-08-03 12:04:00,US/Eastern,35.152237,-80.72893499999999,0.0,KEQY,8230.0,E Independence Blvd,R,Charlotte,Mecklenburg,NC,28227.0
T-12444472,T,Accident,,201.0,Accident on NC-160 Steele Creek Rd at Outlets Blvd.,2018-08-03 11:22:35,2018-08-03 11:51:33,US/Eastern,35.163731,-80.96862,0.0,KUZA,,Outlet Blvd,R,Charlotte,Mecklenburg,NC,28278.0
T-12444473,T,Accident,,201.0,Accident on 5th St near I-77.,2018-08-03 11:23:01,2018-08-03 11:52:47,US/Eastern,35.237774,-80.854179,0.0,KCLT,,I-77 N,R,Charlotte,Mecklenburg,NC,28216.0
T-12444486,T,Accident,,201.0,Accident on NC-16 Brookshire Blvd at Hoskins Rd.,2018-08-03 11:41:28,2018-08-03 12:11:15,US/Eastern,35.266621,-80.88195,0.0,KCLT,4155.0,Brookshire Blvd,R,Charlotte,Mecklenburg,NC,28216.0
T-12444490,T,Accident,,201.0,Accident on Frank Grier Rd Eastbound at Mobile Ln.,2018-08-03 11:49:02,2018-08-03 12:17:55,US/Eastern,35.258244,-80.699188,0.0,KJQF,8598.0,Mobile Ln,R,Charlotte,Mecklenburg,NC,28215.0
T-12444496,T,Accident,,201.0,Accident on Bland St at NC-49 Tryon St.,2018-08-03 12:00:46,2018-08-03 12:30:30,US/Eastern,35.217476,-80.854752,0.0,KCLT,1398.0,S Tryon St,R,Charlotte,Mecklenburg,NC,28203.0
T-12444497,T,Accident,,201.0,Accident on Oakdale Rd at Peachtree Rd.,2018-08-03 12:01:07,2018-08-03 12:30:49,US/Eastern,35.290787,-80.89136500000001,0.0,KCLT,497.0,Peachtree Rd,L,Charlotte,Mecklenburg,NC,28216.0
T-12444500,T,Accident,,201.0,Accident on NC-49 Tryon St at Moss Rd.,2018-08-03 12:06:35,2018-08-03 12:36:19,US/Eastern,35.115134999999995,-80.962273,0.0,KCLT,11199.0,S Tryon St,L,Charlotte,Mecklenburg,NC,28273.0
T-12444508,T,Accident,,201.0,Accident on Tuckaseegee Rd at US-74 Wilkinson Blvd.,2018-08-03 12:14:43,2018-08-03 12:44:28,US/Eastern,35.239475,-80.969864,0.0,KCLT,,Wilkinson Blvd,R,Charlotte,Mecklenburg,NC,28214.0
T-12444513,T,Accident,,201.0,Accident on Old Steele Creek Rd at US-74 Wilkinson Blvd.,2018-08-03 12:19:47,2018-08-03 12:49:33,US/Eastern,35.224503000000006,-80.897896,0.0,KCLT,,Old Steele Creek Rd,R,Charlotte,Mecklenburg,NC,28208.0
T-12444516,T,Accident,,201.0,Accident on Fairview Rd at Cameron Valley Pkwy.,2018-08-03 12:31:23,2018-08-03 13:00:53,US/Eastern,35.146828,-80.825439,0.0,KCLT,,Fairview Rd,R,Charlotte,Mecklenburg,NC,28210.0
T-12444519,T,Accident,,201.0,Accident on The Plaza at Herrin Ave.,2018-08-03 12:37:53,2018-08-03 13:07:40,US/Eastern,35.242008,-80.7957,0.0,KCLT,3394.0,The Plaza,L,Charlotte,Mecklenburg,NC,28205.0
T-12444521,T,Accident,,201.0,Accident on Woodland Dr at Eastway Dr.,2018-08-03 12:40:19,2018-08-03 13:10:04,US/Eastern,35.207813,-80.783478,0.0,KCLT,,Woodland Dr,R,Charlotte,Mecklenburg,NC,28205.0
T-12444527,T,Accident,,201.0,Accident on Idlewild Rd at Piney Grove Rd.,2018-08-03 13:01:34,2018-08-03 13:31:22,US/Eastern,35.184307000000004,-80.728409,0.0,KEQY,8116.0,Idlewild Rd,R,Charlotte,Mecklenburg,NC,28227.0
T-12444529,T,Accident,,201.0,Accident on Sharon Amity Rd at Shamrock Dr.,2018-08-03 13:01:19,2018-08-03 13:31:07,US/Eastern,35.226631,-80.747276,0.0,KJQF,,Shamrock Dr,R,Charlotte,Mecklenburg,NC,28215.0
T-12444530,T,Accident,,201.0,Accident on Cedar St at 5th St.,2018-08-03 13:02:13,2018-08-03 13:31:59,US/Eastern,35.234013,-80.849144,0.0,KCLT,124.0,N Cedar St,R,Charlotte,Mecklenburg,NC,28202.0
T-12444531,T,Accident,,201.0,Accident on Windyedge Rd Northbound at Twin Trail Dr.,2018-08-03 13:05:04,2018-08-03 13:34:38,US/Eastern,35.393089,-80.875473,0.0,KJQF,12799.0,Windyedge Rd,R,Huntersville,Mecklenburg,NC,28078.0
T-12444532,T,Accident,,201.0,Accident on Galleria Blvd at Sardis Crossing Dr.,2018-08-03 13:06:53,2018-08-03 13:36:38,US/Eastern,35.138851,-80.735893,0.0,KEQY,1847.0,Galleria Blvd,L,Charlotte,Mecklenburg,NC,28270.0
T-12444534,T,Accident,,201.0,Accident on Ballantyne Commons Pkwy at US-521 Johnston Rd.,2018-08-03 13:12:43,2018-08-03 13:42:24,US/Eastern,35.054649,-80.850349,0.0,KEQY,,Johnston Rd,R,Charlotte,Mecklenburg,NC,28277.0
T-12444535,T,Accident,,201.0,Accident on I-77 Northbound at Hambright Rd.,2018-08-03 13:13:51,2018-08-03 13:43:20,US/Eastern,35.376465,-80.84723699999999,0.0,KJQF,,I-77 N,R,Huntersville,Mecklenburg,NC,28078.0
T-12444539,T,Accident,,201.0,Accident on East Blvd at Cleveland Ave.,2018-08-03 13:21:13,2018-08-03 13:50:44,US/Eastern,35.210865000000005,-80.856522,0.0,KCLT,1799.0,Cleveland Ave,L,Charlotte,Mecklenburg,NC,28203.0
T-12444540,T,Accident,,247.0,Delays and Two Left lane blocked due to accident on I-77 Northbound near I-485 .,2018-08-03 13:23:11,2018-08-03 13:52:46,US/Eastern,35.364052,-80.842567,0.0,KJQF,,I-77 S,R,Huntersville,Mecklenburg,NC,28078.0
T-12444546,T,Accident,,201.0,Accident on NC-49 University City Blvd Eastbound at Pavilion Blvd.,2018-08-03 13:47:52,2018-08-03 14:33:00,US/Eastern,35.311176,-80.712257,0.0,KJQF,,Pavilion Blvd,R,Charlotte,Mecklenburg,NC,28213.0
T-12444547,T,Accident,,201.0,Accident on Laborde Ave at NC-115 Old Statesville Rd.,2018-08-03 13:48:11,2018-08-03 14:32:55,US/Eastern,35.328609,-80.826111,0.0,KJQF,7846.0,Old Statesville Rd,R,Charlotte,Mecklenburg,NC,28269.0
T-12444548,T,Accident,,201.0,Accident on 77 Center Dr at Tyvola Rd.,2018-08-03 13:56:02,2018-08-03 14:41:00,US/Eastern,35.164272,-80.88430799999999,0.0,KCLT,77.0,Center Dr,R,Charlotte,Mecklenburg,NC,28217.0
T-12444551,T,Accident,,201.0,Accident on Lisha Ln at Baileywick Rd.,2018-08-03 14:02:13,2018-08-03 14:31:57,US/Eastern,35.032063,-80.8321,0.0,KEQY,9715.0,Baileywick Rd,R,Charlotte,Mecklenburg,NC,28277.0
T-12444555,T,Accident,,201.0,Accident on NC-49 Tryon St at Remount Rd.,2018-08-03 14:21:03,2018-08-03 14:50:48,US/Eastern,35.205578,-80.869431,0.0,KCLT,,S Tryon St,R,Charlotte,Mecklenburg,NC,28203.0
T-12444557,T,Accident,,201.0,Accident on Latrobe Dr at Wendover Rd.,2018-08-03 14:28:26,2018-08-03 14:57:23,US/Eastern,35.193062,-80.795036,0.0,KCLT,3898.0,Latrobe Dr,L,Charlotte,Mecklenburg,NC,28211.0
T-12444561,T,Accident,,201.0,Accident on Larry Dr at Tuckaseegee Rd .,2018-08-03 14:36:03,2018-08-03 15:05:46,US/Eastern,35.247253,-80.94459499999999,0.0,KCLT,2500.0,Larry Dr,R,Charlotte,Mecklenburg,NC,28214.0
T-12444567,T,Accident,,201.0,Accident on Sharon Amity Rd at Randolph Rd.,2018-08-03 15:01:50,2018-08-03 15:31:37,US/Eastern,35.175934000000005,-80.79827900000001,0.0,KCLT,4498.0,Randolph Rd,R,Charlotte,Mecklenburg,NC,28211.0
T-12444578,T,Accident,,201.0,Accident on Statesville Ave at Norris Ave.,2018-08-03 15:26:31,2018-08-03 15:56:16,US/Eastern,35.257084000000006,-80.83609799999999,0.0,KCLT,,Norris Ave,R,Charlotte,Mecklenburg,NC,28206.0
T-12444582,T,Accident,,201.0,Accident on Tryon St at Levine Avenue of the Arts.,2018-08-03 15:30:49,2018-08-03 16:00:19,US/Eastern,35.224117,-80.847473,0.0,KCLT,498.0,S Tryon St,R,Charlotte,Mecklenburg,NC,28202.0
T-12444594,T,Accident,,201.0,Accident on NC-51 Pineville-Matthews Rd near Park Cedar Dr.,2018-08-03 15:48:46,2018-08-03 16:18:15,US/Eastern,35.088127,-80.86551700000001,0.0,KCLT,8639.0,Pineville-Matthews Rd,L,Charlotte,Mecklenburg,NC,28226.0
T-12444597,T,Accident,,201.0,Accident on South Blvd Southbound at Magnolia Ave.,2018-08-03 15:50:49,2018-08-03 16:20:35,US/Eastern,35.206932,-80.861,0.0,KCLT,2199.0,South Blvd,L,Charlotte,Mecklenburg,NC,28203.0
T-12444620,T,Accident,,201.0,Accident on Sharon Forest Dr at US-74 Independence Blvd.,2018-08-03 16:44:51,2018-08-03 17:14:42,US/Eastern,35.171303,-80.745361,0.0,KCLT,1925.0,Sharon Forest Dr,L,Charlotte,Mecklenburg,NC,28212.0
T-12444622,T,Accident,,201.0,Accident on Rivergate Pkwy at NC-49 Tryon St.,2018-08-03 16:45:34,2018-08-03 17:15:21,US/Eastern,35.104252,-80.985535,0.0,KCLT,,Rivergate Pkwy,R,Charlotte,Mecklenburg,NC,28273.0
T-12444623,T,Accident,,201.0,Accident on Village Lake Dr at Monroe Rd.,2018-08-03 16:45:53,2018-08-03 17:15:47,US/Eastern,35.157555,-80.74940500000001,0.0,KCLT,8198.0,Monroe Rd,R,Charlotte,Mecklenburg,NC,28212.0
T-12444643,T,Accident,,201.0,Accident on Hilo Dr at US-29 Tryon St.,2018-08-03 17:09:34,2018-08-03 17:39:28,US/Eastern,35.254269,-80.80390899999999,0.0,KCLT,,Hilo Dr,R,Charlotte,Mecklenburg,NC,28206.0
T-12444656,T,Accident,,201.0,Accident on Sweden Rd at South Blvd.,2018-08-03 17:21:30,2018-08-03 17:51:23,US/Eastern,35.128170000000004,-80.876762,0.0,KCLT,7900.0,South Blvd,R,Charlotte,Mecklenburg,NC,28273.0
T-12444667,T,Accident,,201.0,Accident on Earney Dr at Mt Holly Huntersville Rd.,2018-08-03 17:31:09,2018-08-03 18:00:48,US/Eastern,35.317287,-80.95683299999999,0.0,KCLT,10198.0,Earney Dr,L,Charlotte,Mecklenburg,NC,28214.0
T-12444674,T,Accident,,201.0,Lane blocked due to accident on I-77 Northbound at Exit 90 US-21.,2018-08-03 17:37:43,2018-08-03 18:05:56,US/Eastern,35.092087,-80.933495,0.0,KUZA,,Highway 21,R,Fort Mill,York,SC,29715.0
T-12444683,T,Accident,,201.0,Accident on South Blvd at Sharon Lakes Rd.,2018-08-03 17:55:38,2018-08-03 18:25:33,US/Eastern,35.128170000000004,-80.876762,0.0,KCLT,7900.0,South Blvd,R,Charlotte,Mecklenburg,NC,28273.0
T-12444685,T,Accident,,201.0,Accident on US-74 Independence Blvd at Exit 244 Briar Creek Rd.,2018-08-03 17:53:01,2018-08-03 18:22:56,US/Eastern,35.207024,-80.796341,0.0,KCLT,,Briar Creek Rd,R,Charlotte,Mecklenburg,NC,28205.0
T-12444712,T,Accident,,201.0,Accident on Huntersville Concord Rd at Maxwell Ave.,2018-08-03 18:31:48,2018-08-03 19:01:43,US/Eastern,35.4109,-80.841408,0.0,KJQF,198.0,Huntersville Concord Rd,R,Huntersville,Mecklenburg,NC,28078.0
T-12444715,T,Accident,,245.0,Two lanes blocked due to accident on I-485 Northbound before Exits 64A 64B NC-51 Pineville-Matthews Rd.,2018-08-03 18:43:08,2018-08-03 19:12:46,US/Eastern,35.088454999999996,-80.874252,0.0,KCLT,,I-485 N,R,Pineville,Mecklenburg,NC,28134.0
T-12444722,T,Accident,,241.0,Lane blocked due to accident on I-85 Southbound at Exit 29 Sam Wilson Rd.,2018-08-03 18:56:50,2018-08-03 19:26:41,US/Eastern,35.254246,-80.982529,0.0,KCLT,,Sam Wilson Rd,R,Charlotte,Mecklenburg,NC,28214.0
T-12444729,T,Accident,,201.0,Accident on Sedgewood Cir at Wendover Rd.,2018-08-03 19:06:11,2018-08-03 19:36:03,US/Eastern,35.183098,-80.809387,0.0,KCLT,,Sedgewood Cir,R,Charlotte,Mecklenburg,NC,28211.0
T-12444731,T,Accident,,201.0,Accident on Brixham Hill Ave at Conlan Cir.,2018-08-03 19:11:06,2018-08-03 19:41:00,US/Eastern,35.058163,-80.850868,0.0,KEQY,15699.0,Brixham Hill Ave,R,Charlotte,Mecklenburg,NC,28277.0
T-12444746,T,Accident,,201.0,Accident on Wendover Rd at Forest Dr.,2018-08-03 19:28:59,2018-08-03 19:58:28,US/Eastern,35.174423,-80.82074,0.0,KCLT,2001.0,S Wendover Rd,L,Charlotte,Mecklenburg,NC,28211.0
T-12444788,T,Accident,,201.0,Accident on Mannington Dr at McKenzie Creek Dr.,2018-08-03 20:20:59,2018-08-03 21:35:36,US/Eastern,35.079559,-80.73136099999999,0.0,KEQY,2025.0,McKenzie Creek Dr,L,Charlotte,Mecklenburg,NC,28270.0
T-12444800,T,Accident,,201.0,Accident on Arrowood Rd at South Blvd.,2018-08-03 20:37:44,2018-08-03 21:07:37,US/Eastern,35.137524,-80.876411,0.0,KCLT,,South Blvd,R,Charlotte,Mecklenburg,NC,28273.0
T-12444802,T,Accident,,201.0,Accident on NC-27 Albemarle Rd at Central Ave.,2018-08-03 20:37:16,2018-08-03 21:07:11,US/Eastern,35.203495000000004,-80.747398,0.0,KCLT,5814.0,Albemarle Rd,L,Charlotte,Mecklenburg,NC,28212.0
T-12444803,T,Accident,,201.0,Accident on US-74 Wilkinson Blvd at Donald Ross Rd.,2018-08-03 20:37:00,2018-08-03 21:06:55,US/Eastern,35.224461,-80.896507,0.0,KCLT,,Donald Ross Rd,R,Charlotte,Mecklenburg,NC,28208.0
T-12444805,T,Accident,,244.0,Shoulder blocked due to accident on I-77 Northbound at Exit 5 Tyvola Rd.,2018-08-03 20:39:17,2018-08-03 21:08:48,US/Eastern,35.163101,-80.889854,0.0,KCLT,,Tyvola Rd,R,Charlotte,Mecklenburg,NC,28217.0
T-12444814,T,Accident,,201.0,Accident on Sams Ln Westbound at NC-49 University City Blvd.,2018-08-03 20:45:53,2018-08-03 21:15:33,US/Eastern,35.310345,-80.715187,0.0,KJQF,10055.0,University City Blvd,L,Charlotte,Mecklenburg,NC,28213.0
T-12444834,T,Accident,,201.0,Accident on NC-24 W.T. Harris Blvd at The Plaza.,2018-08-03 21:09:38,2018-08-03 21:39:32,US/Eastern,35.258163,-80.736198,0.0,KJQF,,E W.T. Harris Blvd,R,Charlotte,Mecklenburg,NC,28215.0
T-12444840,T,Accident,,201.0,Accident on Nations Ford Rd at Red Roof Dr.,2018-08-03 21:11:48,2018-08-03 21:41:42,US/Eastern,35.146244,-80.895943,0.0,KCLT,7823.0,Nations Ford Rd,L,Charlotte,Mecklenburg,NC,28217.0
T-12444896,T,Accident,,201.0,Accident on I-77 Northbound at Exit 18 NC-24 W.T. Harris Blvd.,2018-08-03 21:45:55,2018-08-03 22:15:46,US/Eastern,35.348240000000004,-80.84722099999999,0.0,KJQF,,W W.T. Harris Blvd,R,Charlotte,Mecklenburg,NC,28269.0
T-12444904,T,Accident,,201.0,Accident on Mallard Creek Rd at I-485.,2018-08-03 21:50:26,2018-08-03 22:20:21,US/Eastern,35.362106,-80.74929,0.0,KJQF,,Mallard Creek Rd,R,Charlotte,Mecklenburg,NC,28269.0
T-12444905,T,Accident,,201.0,Accident on Mallard Creek Rd at Kings Grant Dr.,2018-08-03 21:52:05,2018-08-03 22:21:57,US/Eastern,35.368373999999996,-80.73524499999999,0.0,KJQF,13499.0,Mallard Creek Rd,L,Charlotte,Mecklenburg,NC,28262.0
T-12444914,T,Accident,,201.0,Accident on Ashley Rd at Meredith Ave.,2018-08-03 21:54:44,2018-08-03 22:24:39,US/Eastern,35.228008,-80.892059,0.0,KCLT,3301.0,Meredith Ave,L,Charlotte,Mecklenburg,NC,28208.0
T-12444915,T,Accident,,201.0,Accident on Gainesborough Rd at Shamrock Dr.,2018-08-03 21:55:31,2018-08-03 22:25:26,US/Eastern,35.228958,-80.750641,0.0,KJQF,4401.0,Shamrock Dr,L,Charlotte,Mecklenburg,NC,28215.0
T-12444924,T,Accident,,201.0,Accident on The Plaza at 34th St.,2018-08-03 22:00:51,2018-08-03 22:30:45,US/Eastern,35.239075,-80.79863,0.0,KCLT,,E 34th St,R,Charlotte,Mecklenburg,NC,28205.0
T-12444927,T,Accident,,201.0,Accident on Amanda Ellen Rd at Mallard Creek Rd.,2018-08-03 22:06:11,2018-08-03 22:36:06,US/Eastern,35.364388,-80.744385,0.0,KJQF,,Amanda Ellen Rd,R,Charlotte,Mecklenburg,NC,28262.0
T-12444929,T,Accident,,201.0,Accident on Arrowood Rd at England St.,2018-08-03 22:12:46,2018-08-03 22:42:41,US/Eastern,35.137828999999996,-80.879311,0.0,KCLT,7500.0,England St,L,Charlotte,Mecklenburg,NC,28273.0
T-12444931,T,Accident,,201.0,Accident on NC-27 Morehead St at College St.,2018-08-03 22:16:09,2018-08-03 22:46:03,US/Eastern,35.220402,-80.850601,0.0,KCLT,998.0,S College St,R,Charlotte,Mecklenburg,NC,28202.0
T-12444966,T,Accident,,201.0,Accident on South Blvd at Tyvola Rd.,2018-08-03 23:00:31,2018-08-03 23:30:27,US/Eastern,35.164906,-80.876122,0.0,KCLT,5300.0,South Blvd,R,Charlotte,Mecklenburg,NC,28217.0
T-12444974,T,Accident,,201.0,Accident on I-485 anticlockwise at Exit 33 NC-49 University City Blvd.,2018-08-03 23:23:47,2018-08-03 23:53:39,US/Eastern,35.312386,-80.707634,0.0,KJQF,,University City Blvd,R,Charlotte,Mecklenburg,NC,28213.0
T-12444977,T,Accident,,201.0,Accident on NC-49 University City Blvd at US-29 Tryon St.,2018-08-03 23:26:23,2018-08-03 23:56:16,US/Eastern,35.29063,-80.75679000000001,0.0,KJQF,7562.0,N Tryon St,L,Charlotte,Mecklenburg,NC,28213.0
T-12445001,T,Accident,,201.0,Accident on I-77 Southbound at I-277 Exit 5B.,2018-08-04 01:38:15,2018-08-04 02:07:43,US/Eastern,35.244133000000005,-80.848045,0.0,KCLT,,I-77 S,R,Charlotte,Mecklenburg,NC,28206.0
T-12467728,T,Accident,,241.0,Lane blocked due to accident on I-85 Northbound at Exit 43 University City Blvd.,2018-08-04 18:28:42,2018-08-04 19:01:00,US/Eastern,35.291019,-80.769203,0.0,KJQF,,I-85 N,R,Charlotte,Mecklenburg,NC,28262.0
T-12467763,T,Accident,,201.0,Accident on NC-24 Albemarle Rd at Harrisburg Rd.,2018-08-04 21:07:33,2018-08-04 21:37:09,US/Eastern,35.211452,-80.686699,0.0,KEQY,,Albemarle Rd,R,Charlotte,Mecklenburg,NC,28227.0
T-12467768,T,Accident,,201.0,Accident on Northwoods Forest Dr at Mt Holly Huntersville Rd.,2018-08-04 21:13:04,2018-08-04 21:57:42,US/Eastern,35.311690999999996,-80.969696,0.0,KCLT,11101.0,Northwoods Forest Dr,R,Charlotte,Mecklenburg,NC,28214.0
T-12467775,T,Accident,,201.0,Accident on US-74 Independence Blvd at Fugate Ave.,2018-08-04 22:15:20,2018-08-04 22:51:00,US/Eastern,35.203243,-80.791054,0.0,KCLT,3157.0,E Independence Blvd,R,Charlotte,Mecklenburg,NC,28205.0
T-12467781,T,Accident,,201.0,Accident on Westchester Blvd at US-74 Independence Blvd.,2018-08-04 23:04:10,2018-08-04 23:33:36,US/Eastern,35.201209999999996,-80.780182,0.0,KCLT,3698.0,E Independence Blvd,R,Charlotte,Mecklenburg,NC,28205.0
T-12467784,T,Accident,,201.0,Accident on University City Blvd at I-85.,2018-08-04 23:23:14,2018-08-04 23:52:51,US/Eastern,35.291019,-80.769203,0.0,KJQF,,I-85 N,R,Charlotte,Mecklenburg,NC,28262.0
T-12467792,T,Accident,,201.0,Accident on South Blvd at Tremont Ave.,2018-08-04 23:56:18,2018-08-05 00:25:49,US/Eastern,35.209778,-80.859787,0.0,KCLT,167.0,E Tremont Ave,L,Charlotte,Mecklenburg,NC,28203.0
T-12467803,T,Accident,,201.0,Accident on I-485 Westbound at Exit 21 NC-24 W.T. Harris Blvd.,2018-08-05 01:06:51,2018-08-05 01:36:10,US/Eastern,35.351254,-80.864677,0.0,KCLT,,W W.T. Harris Blvd,R,Charlotte,Mecklenburg,NC,28216.0
T-12467804,T,Accident,,201.0,Accident on Rea Rd at Ardrey Kell Rd.,2018-08-05 01:15:26,2018-08-05 01:59:48,US/Eastern,35.033592,-80.805527,0.0,KEQY,9998.0,Rea Rd,L,Charlotte,Mecklenburg,NC,28277.0
T-12467805,T,Accident,,201.0,Accident on Beatties Ford Rd Northbound at Mount Holly Huntersville Rd.,2018-08-05 01:16:33,2018-08-05 02:15:37,US/Eastern,35.347572,-80.887283,0.0,KJQF,8978.0,Beatties Ford Rd,R,Huntersville,Mecklenburg,NC,28078.0
T-12467818,T,Accident,,201.0,Accident on University City Blvd Westbound at NC-49 University City Blvd.,2018-08-05 02:27:38,2018-08-05 03:11:40,US/Eastern,35.308170000000004,-80.72090899999999,0.0,KJQF,9703.0,University City Blvd,L,Charlotte,Mecklenburg,NC,28213.0
T-12467820,T,Accident,,201.0,Accident on US-74 Independence Blvd at Sharon Amity Rd.,2018-08-05 02:34:30,2018-08-05 03:03:55,US/Eastern,35.194469,-80.765968,0.0,KCLT,,N Sharon Amity Rd,R,Charlotte,Mecklenburg,NC,28212.0
T-12467823,T,Accident,,201.0,Accident on Hickory Grove Rd at Market St.,2018-08-05 02:44:19,2018-08-05 03:28:59,US/Eastern,35.225445,-80.72193100000001,0.0,KJQF,6398.0,Hickory Grove Rd,R,Charlotte,Mecklenburg,NC,28215.0
T-12467824,T,Accident,,201.0,Accident on South Blvd Southbound near Grover Rd.,2018-08-05 02:50:24,2018-08-05 03:19:18,US/Eastern,35.162884000000005,-80.876099,0.0,KCLT,5400.0,South Blvd,R,Charlotte,Mecklenburg,NC,28217.0
T-12479853,T,Accident,,201.0,Accident on Ballantyne Commons Pkwy both ways at John J Delaney Dr.,2018-08-05 13:56:44,2018-08-05 14:26:11,US/Eastern,35.055073,-80.846947,0.0,KEQY,,John J Delaney Dr,R,Charlotte,Mecklenburg,NC,28277.0
T-12479858,T,Accident,,201.0,Accident on SC-160 both ways at Sutton Rd.,2018-08-05 14:37:17,2018-08-05 15:36:51,US/Eastern,35.033009,-80.970139,0.0,KUZA,,Sutton Rd N,R,Fort Mill,York,SC,29708.0
T-12479869,T,Accident,,201.0,Accident on Lancaster Hwy at Ballantyne Commons Pkwy.,2018-08-05 16:16:28,2018-08-05 16:46:03,US/Eastern,35.05024,-80.868187,0.0,KEQY,11899.0,Ballantyne Commons Pkwy,L,Charlotte,Mecklenburg,NC,28277.0
T-12479880,T,Accident,,201.0,Accident on I-77 Southbound at Exit 6B NC-49 Tryon St.,2018-08-05 17:35:20,2018-08-05 18:05:07,US/Eastern,35.183018,-80.887787,0.0,KCLT,,I-77 S,R,Charlotte,Mecklenburg,NC,28217.0
T-12479881,T,Accident,,201.0,Accident on I-77 Northbound at Exit 12 Lasalle St.,2018-08-05 17:34:48,2018-08-05 18:04:36,US/Eastern,35.261074,-80.840683,0.0,KCLT,,I-77 N,R,Charlotte,Mecklenburg,NC,28206.0
T-12479910,T,Accident,,201.0,Accident on Johnston Rd both ways at I-485 .,2018-08-05 19:54:43,2018-08-05 20:23:41,US/Eastern,35.065018,-80.84581,0.0,KEQY,,Johnston Rd,R,Charlotte,Mecklenburg,NC,28277.0
T-12479925,T,Accident,,201.0,Accident on Matheson Ave Westbound in Charlotte.,2018-08-05 21:26:48,2018-08-05 21:55:45,US/Eastern,35.241634000000005,-80.807549,0.0,KCLT,820.0,Matheson Ave,R,Charlotte,Mecklenburg,NC,28205.0
T-12479934,T,Accident,,201.0,Accident on Cloudman St at Black Ave.,2018-08-05 23:21:52,2018-08-05 23:50:56,US/Eastern,35.268345000000004,-80.879501,0.0,KCLT,3727.0,Black Ave,L,Charlotte,Mecklenburg,NC,28216.0
T-12479935,T,Accident,,201.0,Accident on US-74 Independence Blvd at Sardis Rd.,2018-08-05 23:26:55,2018-08-05 23:55:56,US/Eastern,35.147636,-80.724655,0.0,KEQY,8567.0,E Independence Blvd,R,Charlotte,Mecklenburg,NC,28227.0
T-12479938,T,Accident,,201.0,Accident on Sharon Amity Rd at Monroe Rd.,2018-08-05 23:46:23,2018-08-06 00:16:01,US/Eastern,35.189518,-80.772514,0.0,KCLT,5401.0,Monroe Rd,R,Charlotte,Mecklenburg,NC,28212.0
T-12479953,T,Accident,,201.0,Accident on Central Ave Westbound at Evergreen Cemetery Dr.,2018-08-06 01:25:04,2018-08-06 02:06:35,US/Eastern,35.213715,-80.7696,0.0,KCLT,4427.0,Central Ave,L,Charlotte,Mecklenburg,NC,28205.0
T-12479954,T,Accident,,201.0,Accident on Central Ave at Nandina St.,2018-08-06 01:26:16,2018-08-06 01:55:45,US/Eastern,35.220135,-80.808533,0.0,KCLT,1334.0,Nandina St,R,Charlotte,Mecklenburg,NC,28205.0
T-12479958,T,Accident,,201.0,Accident on NC-16 Brookshire Blvd at Pleasant Grove Rd.,2018-08-06 01:35:48,2018-08-06 02:05:25,US/Eastern,35.309917,-80.92596400000001,0.0,KCLT,,Pleasant Grove Rd,R,Charlotte,Mecklenburg,NC,28216.0
T-12479959,T,Accident,,201.0,Accident on I-77 Northbound at Exit 4 Archdale Dr.,2018-08-06 01:42:17,2018-08-06 02:26:51,US/Eastern,35.147853999999995,-80.896591,0.0,KCLT,,I-77 N,R,Charlotte,Mecklenburg,NC,28217.0
T-12479961,T,Accident,,201.0,Accident on US-21 Statesville Rd at Wilmington Rd.,2018-08-06 02:02:04,2018-08-06 02:31:23,US/Eastern,35.411575,-80.85543100000001,0.0,KJQF,14298.0,N Statesville Rd,L,Huntersville,Mecklenburg,NC,28078.0
T-12479967,T,Accident,,201.0,Accident on Arrowood Rd at Fawnbrook Ln.,2018-08-06 02:42:45,2018-08-06 03:12:05,US/Eastern,35.134563,-80.900391,0.0,KCLT,625.0,W Arrowood Rd,L,Charlotte,Mecklenburg,NC,28217.0
T-12493092,T,Accident,,201.0,Accident on Carowinds Blvd at Choate Cir.,2018-08-06 09:02:13,2018-08-06 09:31:47,US/Eastern,35.100105,-80.948685,0.0,KCLT,14518.0,Carowinds Blvd,L,Charlotte,Mecklenburg,NC,28273.0
T-12493097,T,Accident,,201.0,Accident on NC-49 Tryon St at Moss Rd.,2018-08-06 09:29:54,2018-08-06 09:59:35,US/Eastern,35.115134999999995,-80.962273,0.0,KCLT,11199.0,S Tryon St,L,Charlotte,Mecklenburg,NC,28273.0
T-12493110,T,Accident,,201.0,Accident on Ballantyne Corporate Pl Southbound near Johnston Rd.,2018-08-06 10:41:48,2018-08-06 11:10:56,US/Eastern,35.061581,-80.850121,0.0,KEQY,13512.0,Ballantyne Corporate Pl,L,Charlotte,Mecklenburg,NC,28277.0
T-12493114,T,Accident,,201.0,Accident on NC-27 Freedom Dr at Berryhill Rd.,2018-08-06 10:57:55,2018-08-06 11:27:39,US/Eastern,35.233089,-80.876228,0.0,KCLT,,Berryhill Rd,R,Charlotte,Mecklenburg,NC,28208.0
T-12493115,T,Accident,,201.0,Accident on Sugar Creek Rd at I-85.,2018-08-06 11:11:13,2018-08-06 11:55:50,US/Eastern,35.278725,-80.793533,0.0,KJQF,,W Sugar Creek Rd,R,Charlotte,Mecklenburg,NC,28213.0
T-12493116,T,Accident,,201.0,Accident on South Blvd at Westinghouse Blvd.,2018-08-06 11:13:25,2018-08-06 11:59:00,US/Eastern,35.112984000000004,-80.88299599999999,0.0,KCLT,9200.0,South Blvd,R,Charlotte,Mecklenburg,NC,28273.0
T-12493117,T,Accident,,201.0,Accident on NC-27 Freedom Dr at Berryhill Rd.,2018-08-06 11:13:49,2018-08-06 11:58:29,US/Eastern,35.233089,-80.876228,0.0,KCLT,,Berryhill Rd,R,Charlotte,Mecklenburg,NC,28208.0
T-12493118,T,Accident,,201.0,Accident on Glenburn Ln at Evanton Loch Rd.,2018-08-06 11:15:59,2018-08-06 12:01:00,US/Eastern,35.161369,-80.989594,0.0,KUZA,10300.0,Glenburn Ln,R,Charlotte,Mecklenburg,NC,28278.0
T-12493127,T,Accident,,201.0,Accident on US-74 Independence Blvd at Briar Creek Rd .,2018-08-06 11:31:51,2018-08-06 12:01:33,US/Eastern,35.207024,-80.796341,0.0,KCLT,,Briar Creek Rd,R,Charlotte,Mecklenburg,NC,28205.0
T-12493130,T,Accident,,201.0,Accident on NC-160 Steele Creek Rd at Steelecroft Pkwy.,2018-08-06 11:40:51,2018-08-06 12:10:31,US/Eastern,35.10461,-80.989014,0.0,KCLT,13967.0,Steele Creek Rd,R,Charlotte,Mecklenburg,NC,28273.0
T-12493133,T,Accident,,201.0,Accident on NC-49 Tryon St at NC-160 Steele Creek Rd .,2018-08-06 11:41:23,2018-08-06 12:11:02,US/Eastern,35.102753,-80.988632,0.0,KUZA,,Steele Creek Rd,R,Charlotte,Mecklenburg,NC,28278.0
T-12493135,T,Accident,,201.0,Accident on SC-160 Eastbound at Grant Farm Dr.,2018-08-06 11:48:13,2018-08-06 12:32:53,US/Eastern,35.063618,-80.991241,0.0,KUZA,2988.0,Highway 160 W,R,Fort Mill,York,SC,29708.0
T-12493148,T,Accident,,201.0,Accident on SC-160 at SC-460 Gold Hill Rd.,2018-08-06 12:09:41,2018-08-06 13:09:22,US/Eastern,35.061302000000005,-80.991524,0.0,KUZA,1676.0,Gold Hill Rd,L,Fort Mill,York,SC,29708.0
T-12493149,T,Accident,,201.0,Entry ramp to I-85 Eastbound from Brookshire Blvd Southbound lane blocked due to accident.,2018-08-06 12:10:47,2018-08-06 12:39:42,US/Eastern,35.262394,-80.87751,0.850000023842,KCLT,,I-85 N,R,Charlotte,Mecklenburg,NC,28216.0
T-12493155,T,Accident,,201.0,Accident on SC-279 Pole Branch Rd near Catawba Cove Dr.,2018-08-06 12:16:07,2018-08-06 12:45:51,US/Eastern,35.150478,-81.058784,0.0,KAKH,,Catawba Cove Dr,R,Clover,York,SC,29710.0
T-12493159,T,Accident,,201.0,Accident on Sharon Amity Rd at Barwick Rd.,2018-08-06 12:21:49,2018-08-06 12:51:35,US/Eastern,35.177238,-80.7938,0.0,KCLT,399.0,N Sharon Amity Rd,L,Charlotte,Mecklenburg,NC,28211.0
T-12493160,T,Accident,,201.0,Accident on Monroe Rd at Bramlet Rd.,2018-08-06 12:21:24,2018-08-06 12:51:06,US/Eastern,35.204304,-80.806442,0.0,KCLT,2736.0,Monroe Rd,R,Charlotte,Mecklenburg,NC,28205.0
T-12493161,T,Accident,,201.0,Accident on Sardis Rd at NC-16 Providence Rd.,2018-08-06 12:25:43,2018-08-06 12:55:22,US/Eastern,35.15443,-80.79496800000001,0.0,KCLT,,Sardis Rd,R,Charlotte,Mecklenburg,NC,28226.0
T-12493162,T,Accident,,201.0,Accident on West Blvd at Wallace Neel Rd.,2018-08-06 12:26:08,2018-08-06 12:55:53,US/Eastern,35.190994,-80.96386,0.0,KUZA,1529.0,Garrison Rd,R,Charlotte,Mecklenburg,NC,28278.0
T-12493165,T,Accident,,201.0,Accident on Sardis Rd at Randolph Rd .,2018-08-06 12:34:56,2018-08-06 13:04:39,US/Eastern,35.16032,-80.787086,0.0,KCLT,,Sardis Rd,R,Charlotte,Mecklenburg,NC,28211.0
T-12493166,T,Accident,,201.0,Accident on Billy Graham Pkwy at Westmont Dr.,2018-08-06 12:34:32,2018-08-06 13:04:19,US/Eastern,35.187317,-80.904442,0.0,KCLT,1398.0,Billy Graham Pkwy,R,Charlotte,Mecklenburg,NC,28217.0
T-12493170,T,Accident,,201.0,Accident on NC-115 Old Statesville Rd at Reames Rd.,2018-08-06 12:35:34,2018-08-06 13:05:20,US/Eastern,35.344818,-80.824013,0.0,KJQF,9107.0,Old Statesville Rd,R,Charlotte,Mecklenburg,NC,28269.0
T-12493181,T,Accident,,201.0,Accident on I-77 Southbound at I-277 Brookshire Fwy.,2018-08-06 12:51:32,2018-08-06 13:21:15,US/Eastern,35.243621999999995,-80.84706899999999,0.0,KCLT,,Brookshire Fwy E,R,Charlotte,Mecklenburg,NC,28206.0
T-12493188,T,Accident,,201.0,Accident on Northcrest Shopping Center Dr at Northlake West Dr.,2018-08-06 13:06:45,2018-08-06 13:36:12,US/Eastern,35.347675,-80.861237,0.0,KCLT,9401.0,W W.T. Harris Blvd,R,Charlotte,Mecklenburg,NC,28216.0
T-12493189,T,Accident,,201.0,Accident on Yorkmont Rd at Piper Ln.,2018-08-06 13:11:58,2018-08-06 13:41:46,US/Eastern,35.193886,-80.933304,0.0,KCLT,,Piper Ln,R,Charlotte,Mecklenburg,NC,28208.0
T-12493190,T,Accident,,201.0,Accident on Mallard Creek Church Rd at Legranger Rd.,2018-08-06 13:11:43,2018-08-06 13:41:30,US/Eastern,35.333290000000005,-80.748535,0.0,KJQF,1381.0,W Mallard Creek Church Rd,L,Charlotte,Mecklenburg,NC,28262.0
T-12493191,T,Accident,,201.0,Accident on 12th St at Alexander St.,2018-08-06 13:20:15,2018-08-06 13:50:02,US/Eastern,35.228188,-80.8284,0.0,KCLT,902.0,N Alexander St,R,Charlotte,Mecklenburg,NC,28206.0
